name_en,name_ko,country_code,lat,lon
les Escaldes,les Escaldes,AD,42.50729,1.53414
Andorra la Vella,Andorra la Vella,AD,42.50779,1.52109
Warisan,Warisan,AE,25.16744,55.40708
Umm Suqaym,Umm Suqaym,AE,25.15491,55.21015
Umm Al Quwain City,Umm Al Quwain City,AE,25.56473,55.55517
Tarif Kalba,Tarif Kalba,AE,25.0695,56.33115
Ar Rashidiyah,Ar Rashidiyah,AE,25.22499,55.38947
Ras Al Khaimah,Ras Al Khaimah,AE,25.78953,55.9432
Zayed City,Zayed City,AE,23.65416,53.70522
Khawr Fakkan,Khawr Fakkan,AE,25.33132,56.34199
Kalba,Kalba,AE,25.0513,56.35422
Jumayra,Jumayra,AE,25.20795,55.24969
Dubai,Dubai,AE,25.07725,55.30927
Dibba Al-Fujairah,Dibba Al-Fujairah,AE,25.59246,56.26176
Dibba Al-Hisn,Dibba Al-Hisn,AE,25.61955,56.27291
Dayrah,Dayrah,AE,25.27143,55.30207
Sharjah,Sharjah,AE,25.3342,55.41221
Ar Ruways,Ar Ruways,AE,24.11028,52.73056
Hatta,Hatta,AE,24.80073,56.12726
Fujairah,Fujairah,AE,25.11641,56.34141
Al Ain City,Al Ain City,AE,24.19167,55.76056
Ajman,Ajman,AE,25.40177,55.47878
Adh Dhayd,Adh Dhayd,AE,25.28812,55.88157
Abu Dhabi,Abu Dhabi,AE,24.45118,54.39696
Abu Hayl,Abu Hayl,AE,25.28413,55.33153
As Satwah,As Satwah,AE,25.22192,55.27459
Al Hamidiyah,Al Hamidiyah,AE,25.40001,55.52925
Al Waheda,Al Waheda,AE,25.29173,55.33822
Al Karama,Al Karama,AE,25.24004,55.30106
The Palm Jumeirah,The Palm Jumeirah,AE,25.11607,55.13506
Bur Dubai,Bur Dubai,AE,25.26038,55.29891
Khalifah A City,Khalifah A City,AE,24.42588,54.605
Mirdif,Mirdif,AE,25.22443,55.41412
Hawr al 'Anz,Hawr al 'Anz,AE,25.27744,55.33675
Mankhul,Mankhul,AE,25.24612,55.29222
Nayf,Nayf,AE,25.27139,55.30323
Al Murar al Qadim,Al Murar al Qadim,AE,25.27576,55.30738
Al Warqaa,Al Warqaa,AE,25.19272,55.42013
International City,International City,AE,25.16383,55.40987
Dubai Marina,Dubai Marina,AE,25.08525,55.14646
Dubai Internet City,Dubai Internet City,AE,25.09538,55.16171
Al Safa,Al Safa,AE,25.17047,55.23336
Ar Rumaylah,Ar Rumaylah,AE,25.40338,55.4334
Al Jurf,Al Jurf,AE,25.41814,55.50791
Al Majaz,Al Majaz,AE,25.32354,55.38774
Dubai Festival City,Dubai Festival City,AE,25.22177,55.35733
Dubai International Financial Centre,Dubai International Financial Centre,AE,25.2106,55.27787
Dubai Investments Park,Dubai Investments Park,AE,25.00827,55.15682
Jebel Ali,Jebel Ali,AE,25.00255,55.10811
Bani Yas City,Bani Yas City,AE,24.30978,54.62944
Musaffah,Musaffah,AE,24.35893,54.48267
Al Shamkhah City,Al Shamkhah City,AE,24.39268,54.70779
Reef Al Fujairah City,Reef Al Fujairah City,AE,25.14479,56.24764
Al Bada'a,Al Bada'a,AE,25.22462,55.26888
Al Muteena,Al Muteena,AE,25.27375,55.32265
Al Mizhar First,Al Mizhar First,AE,25.24805,55.44128
Dubai Silicon Oasis,Dubai Silicon Oasis,AE,25.11985,55.38718
Al Furjan,Al Furjan,AE,25.02651,55.14565
Business Bay,Business Bay,AE,25.18544,55.26969
Al Qusais 1,Al Qusais 1,AE,25.27925,55.36995
Halwan,Halwan,AE,25.34586,55.42165
Al Sajaah,Al Sajaah,AE,25.31532,55.63211
Lahbab,Lahbab,AE,25.03763,55.59135
Mohammed Bin Zayed City,Mohammed Bin Zayed City,AE,24.34794,54.55368
Zaranj,Zaranj,AF,30.95962,61.86037
Bazar-e Yakawlang,Bazar-e Yakawlang,AF,34.73525,66.97379
Taloqan,Taloqan,AF,36.73605,69.53451
Shindand,Shindand,AF,33.30294,62.1474
Shibirghan,Shibirghan,AF,36.66757,65.7529
Shahrak,Shahrak,AF,34.10737,64.3052
Sar-e Pul,Sar-e Pul,AF,36.21544,65.93249
Sang-e Charak,Sang-e Charak,AF,35.84972,66.43694
Aibak,Aibak,AF,36.26468,68.01551
Rustaq,Rustaq,AF,37.12604,69.83045
Qarqin,Qarqin,AF,37.41853,66.04358
Qarawul,Qarawul,AF,37.21959,68.7802
Pul-e Khumri,Pul-e Khumri,AF,35.94458,68.71512
Paghman,Paghman,AF,34.58787,68.95091
Nili,Nili,AF,33.72178,66.13023
Nahrin,Nahrin,AF,36.0649,69.13343
Maymana,Maymana,AF,35.92139,64.78361
Mehtar Lam,Mehtar Lam,AF,34.67139,70.20944
Mazar-e Sharif,Mazar-e Sharif,AF,36.70904,67.11087
Lashkar Gah,Lashkar Gah,AF,31.59382,64.37161
Kushk,Kushk,AF,33.29565,61.95221
Kunduz,Kunduz,AF,36.72895,68.857
Khost,Khost,AF,33.33951,69.92041
Khulm,Khulm,AF,36.69736,67.69826
Khash,Khash,AF,31.52919,62.79055
Khan Neshin,Khan Neshin,AF,30.5488,63.7888
Khanabad,Khanabad,AF,36.68304,69.11279
Karukh,Karukh,AF,34.48108,62.5863
Kandahar,Kandahar,AF,31.61332,65.71013
Kabul,Kabul,AF,34.52813,69.17233
Jalalabad,Jalalabad,AF,34.42647,70.45153
Jabal os Saraj,Jabal os Saraj,AF,35.11833,69.23778
Herat,Herat,AF,34.34817,62.19967
Ghormach,Ghormach,AF,35.73062,63.78264
Ghazni,Ghazni,AF,33.55391,68.42096
Gereshk,Gereshk,AF,31.82089,64.57005
Gardez,Gardez,AF,33.59744,69.22592
Fayzabad,Fayzabad,AF,37.11664,70.58002
Farah,Farah,AF,32.37451,62.11638
Eslam Qaleh,Eslam Qaleh,AF,34.66667,61.06667
Charikar,Charikar,AF,35.01361,69.17139
Baraki Barak,Baraki Barak,AF,33.96744,68.9492
Bamyan,Bamyan,AF,34.82156,67.82734
Balkh,Balkh,AF,36.75635,66.8972
Baghlan,Baghlan,AF,36.13068,68.70829
Art Khwajah,Art Khwajah,AF,37.08571,69.47958
Asmar,Asmar,AF,35.03333,71.35809
Asadabad,Asadabad,AF,34.87311,71.14697
Andkhoy,Andkhoy,AF,36.95293,65.12376
Bazarak,Bazarak,AF,35.31292,69.51519
Markaz-e Woluswali-ye Achin,Markaz-e Woluswali-ye Achin,AF,34.12583,70.70778
Saint John's,Saint John's,AG,17.12096,-61.84329
The Valley,The Valley,AI,18.21704,-63.05783
Sarande,Sarande,AL,39.87534,20.00477
Pogradec,Pogradec,AL,40.9025,20.6525
Librazhd,Librazhd,AL,41.17944,20.315
Kukes,Kukes,AL,42.07694,20.42194
Korce,Korce,AL,40.61861,20.78083
Gjirokaster,Gjirokaster,AL,40.07583,20.13889
Elbasan,Elbasan,AL,41.11138,20.08224
Bulqize,Bulqize,AL,41.49167,20.22194
Vlore,Vlore,AL,40.4696,19.48379
Tirana,Tirana,AL,41.32744,19.81866
Shkoder,Shkoder,AL,42.06828,19.51258
Peqin,Peqin,AL,41.04611,19.75111
Patos Fshat,Patos Fshat,AL,40.64278,19.65083
Patos,Patos,AL,40.68333,19.61944
Lushnje,Lushnje,AL,40.94194,19.705
Lezhe,Lezhe,AL,41.78361,19.64361
Kucove,Kucove,AL,40.80028,19.91667
Kruje,Kruje,AL,41.50917,19.79278
Kavaje,Kavaje,AL,41.18556,19.55694
Fier-Cifci,Fier-Cifci,AL,40.71667,19.56667
Fier,Fier,AL,40.7251,19.55823
Durres,Durres,AL,41.32355,19.45469
Berat,Berat,AL,40.70583,19.95222
Kapan,Kapan,AM,39.20762,46.40678
Goris,Goris,AM,39.51111,46.34168
Artashat,Artashat,AM,39.95484,44.54874
Ararat,Ararat,AM,39.85494,44.6947
Yerevan,Yerevan,AM,40.17765,44.5126
Vagharshapat,Vagharshapat,AM,40.16557,44.29462
Sevan,Sevan,AM,40.548,44.95314
Masis,Masis,AM,40.06595,44.43669
Vanadzor,Vanadzor,AM,40.8074,44.49704
Gavar,Gavar,AM,40.35398,45.12386
Ijevan,Ijevan,AM,40.88037,45.14776
Hrazdan,Hrazdan,AM,40.5169,44.75591
Armavir,Armavir,AM,40.15553,44.0388
Gyumri,Gyumri,AM,40.79305,43.84635
Dilijan,Dilijan,AM,40.74037,44.86344
Davtashen,Davtashen,AM,40.21642,44.48088
Charentsavan,Charentsavan,AM,40.40289,44.64447
Avan,Avan,AM,40.21436,44.57846
Ashtarak,Ashtarak,AM,40.2976,44.36152
Artik,Artik,AM,40.61918,43.97207
Abovyan,Abovyan,AM,40.2717,44.63342
Erebuni,Erebuni,AM,40.13309,44.53009
Nor Nork,Nor Nork,AM,40.19661,44.5669
Ajapnyak,Ajapnyak,AM,40.19917,44.47056
Kanaker-Zeytun,Kanaker-Zeytun,AM,40.22,44.53833
Malatia-Sebastia,Malatia-Sebastia,AM,40.17396,44.4457
Kentron,Kentron,AM,40.17806,44.51303
Shengavit,Shengavit,AM,40.1557,44.4779
Arabkir,Arabkir,AM,40.20624,44.50365
Saurimo,Saurimo,AO,-9.66078,20.39155
Lucapa,Lucapa,AO,-8.41915,20.74466
Dundo,Dundo,AO,-7.36643,20.81557
Chitato,Chitato,AO,-7.3,20.73333
Cassanguidi,Cassanguidi,AO,-7.48367,21.30339
Lumbala,Lumbala,AO,-14.10165,21.43531
Luau,Luau,AO,-10.70727,22.22466
Cazombo,Cazombo,AO,-11.89914,22.90216
Nzagi,Nzagi,AO,-8.38549,15.30126
Uige,Uige,AO,-7.60874,15.06131
Tomboco,Tomboco,AO,-6.80517,13.33017
Soyo,Soyo,AO,-6.1349,12.36894
Songo,Songo,AO,-7.35207,14.84629
Sanza Pombo,Sanza Pombo,AO,-7.31473,16.0024
N'zeto,N'zeto,AO,-7.228,12.86956
Negage,Negage,AO,-7.75938,15.2722
N'dalatando,N'dalatando,AO,-9.29782,14.91162
Mussende,Mussende,AO,-10.5143,16.0199
Mbanza Kongo,Mbanza Kongo,AO,-6.26667,14.23833
Maquela do Zombo,Maquela do Zombo,AO,-6.05716,15.10971
Malanje,Malanje,AO,-9.54015,16.34096
Maianga,Maianga,AO,-8.82904,13.23097
Lucala,Lucala,AO,-9.27268,15.25206
Lubalo,Lubalo,AO,-9.15445,19.28136
Luanda,Luanda,AO,-8.83682,13.23432
Cunda dia Baze,Cunda dia Baze,AO,-8.90769,17.05339
Golungo Alto,Golungo Alto,AO,-9.13333,14.76667
Dondo,Dondo,AO,-9.68456,14.42788
Dondo,Dondo,AO,-9.05,15.31667
Cuimba,Cuimba,AO,-6.12085,14.62086
Cuilo,Cuilo,AO,-8.23619,19.52566
Cuango-Luzamba,Cuango-Luzamba,AO,-9.14583,18.04453
Cazombo,Cazombo,AO,-8.73204,15.37124
Caxito,Caxito,AO,-8.57848,13.66425
Cangandala,Cangandala,AO,-9.78333,16.43333
Camabatela,Camabatela,AO,-8.18812,15.37495
Cacuso,Cacuso,AO,-9.42102,15.74668
Cabinda,Cabinda,AO,-5.56198,12.19476
Buco Zau,Buco Zau,AO,-4.76667,12.55
Belize,Belize,AO,-4.65,12.76667
Barra do Dande,Barra do Dande,AO,-8.47175,13.37011
Bailundo,Bailundo,AO,-9.57499,15.99442
Gama,Gama,AO,-8.5675,13.47639
Cazenga,Cazenga,AO,-8.82488,13.31318
Talatona,Talatona,AO,-8.91783,13.18562
Xangongo,Xangongo,AO,-16.7444,14.97494
Alto Hama,Alto Hama,AO,-12.23333,15.55
Virei,Virei,AO,-15.727,12.94961
Ucuma,Ucuma,AO,-12.96121,15.05958
Ucu Seles,Ucu Seles,AO,-11.41237,14.30663
Tombua,Tombua,AO,-15.80394,11.84485
Sumbe,Sumbe,AO,-11.20605,13.84371
Quipungo,Quipungo,AO,-14.81909,14.53504
Quibala,Quibala,AO,-10.73366,14.97995
Porto Amboim,Porto Amboim,AO,-10.73251,13.76844
Ondjiva,Ondjiva,AO,-17.06667,15.73333
Nharea,Nharea,AO,-11.47512,16.96496
Mossamedes,Mossamedes,AO,-15.19611,12.15222
Mungo,Mungo,AO,-11.83268,16.23613
Menongue,Menongue,AO,-14.6585,17.69099
Matala,Matala,AO,-14.73272,15.03479
Luquembo,Luquembo,AO,-10.73912,17.71766
Luena,Luena,AO,-11.78333,19.91667
Lubango,Lubango,AO,-14.91717,13.4925
Longonjo,Longonjo,AO,-12.90795,15.24845
Londuimbali,Londuimbali,AO,-12.23712,15.31697
Lobito,Lobito,AO,-12.3644,13.53601
Cuito,Cuito,AO,-12.38333,16.93333
Catchiungo,Catchiungo,AO,-12.56598,16.22589
Humbe,Humbe,AO,-16.6864,14.90317
Huambo,Huambo,AO,-12.77611,15.73917
Ganda,Ganda,AO,-13.01592,14.63502
Gabela,Gabela,AO,-10.85147,14.37993
Dombe Grande,Dombe Grande,AO,-12.95167,13.1025
Cuemba,Cuemba,AO,-12.15,18.08333
Cubal,Cubal,AO,-13.03865,14.2455
Conda,Conda,AO,-11.10862,14.33621
Chitembo,Chitembo,AO,-13.55,16.63333
Chinguar,Chinguar,AO,-12.55708,16.33805
Cela,Cela,AO,-11.42173,15.12345
Catumbela,Catumbela,AO,-12.43002,13.54677
Catabola,Catabola,AO,-12.15,17.28333
Capunda,Capunda,AO,-11.13333,14.46667
Camucuio,Camucuio,AO,-14.11667,13.25
Cambundi Catembo,Cambundi Catembo,AO,-10.07531,17.55058
Camacupa,Camacupa,AO,-12.01667,17.48333
Caluquembe,Caluquembe,AO,-13.86667,14.43333
Calulo,Calulo,AO,-10.00055,14.89519
Caala,Caala,AO,-12.8525,15.56056
Bocoio,Bocoio,AO,-12.47017,14.13688
Benguela,Benguela,AO,-12.57674,13.40268
Balombo,Balombo,AO,-12.35426,14.77232
Baia Farta,Baia Farta,AO,-12.60417,13.19667
Andulo,Andulo,AO,-11.48676,16.69663
Cambundi,Cambundi,AO,-7.46856,17.03769
Cafunfo,Cafunfo,AO,-8.7672,17.99572
Santa Clara,Santa Clara,AO,-10.19156,15.43408
Quissecula,Quissecula,AO,-11.39223,15.09201
Cambundi,Cambundi,AO,-10.89481,17.76402
Ingombota,Ingombota,AO,-8.81806,13.22889
Rangel,Rangel,AO,-8.82644,13.26285
Samba,Samba,AO,-8.88001,13.19617
Sambizanga,Sambizanga,AO,-8.78883,13.27506
Zarate,Zarate,AR,-34.09584,-59.02423
Colonia Wanda,Colonia Wanda,AR,-25.97337,-54.56304
Villa Ortuzar,Villa Ortuzar,AR,-34.57973,-58.46829
Villa Ocampo,Villa Ocampo,AR,-28.48726,-59.35421
Villa Lugano,Villa Lugano,AR,-34.67907,-58.47263
Villaguay,Villaguay,AR,-31.86767,-59.02701
Villa Gesell,Villa Gesell,AR,-37.26394,-56.97304
Villa de Mayo,Villa de Mayo,AR,-34.5108,-58.68059
Tortuguitas,Tortuguitas,AR,-34.47513,-58.75367
Tigre,Tigre,AR,-34.42603,-58.57962
Tandil,Tandil,AR,-37.3287,-59.1369
San Vicente,San Vicente,AR,-26.61667,-54.13333
Santo Tome,Santo Tome,AR,-28.55104,-56.04125
Santos Lugares,Santos Lugares,AR,-34.60306,-58.54074
Santa Elena,Santa Elena,AR,-30.94432,-59.78832
San Pedro,San Pedro,AR,-33.67918,-59.66633
San Pedro,San Pedro,AR,-26.6218,-54.10902
San Luis del Palmar,San Luis del Palmar,AR,-27.50766,-58.55625
San Lorenzo,San Lorenzo,AR,-28.13442,-58.76685
San Javier,San Javier,AR,-30.58072,-59.92962
San Isidro,San Isidro,AR,-34.46971,-58.52111
San Antonio de Padua,San Antonio de Padua,AR,-34.66267,-58.69819
Saladillo,Saladillo,AR,-35.63884,-59.77938
Saladas,Saladas,AR,-28.25504,-58.62386
Retiro,Retiro,AR,-34.58333,-58.38333
Resistencia,Resistencia,AR,-27.46363,-58.98665
Reconquista,Reconquista,AR,-29.15,-59.65
Quilmes,Quilmes,AR,-34.72065,-58.25454
Puerto Rico,Puerto Rico,AR,-26.8089,-55.02147
Puerto Iguazu,Puerto Iguazu,AR,-25.59912,-54.57355
Puerto Esperanza,Puerto Esperanza,AR,-26.02267,-54.61356
Puerto Eldorado,Puerto Eldorado,AR,-26.40843,-54.69463
Posadas,Posadas,AR,-27.39184,-55.92379
Pontevedra,Pontevedra,AR,-34.74947,-58.70158
Pirane,Pirane,AR,-25.73271,-59.10989
Pilar,Pilar,AR,-34.45867,-58.91398
Paso de los Libres,Paso de los Libres,AR,-29.71251,-57.08771
Obera,Obera,AR,-27.48683,-55.11994
Nogoya,Nogoya,AR,-32.39375,-59.78955
Necochea,Necochea,AR,-38.5545,-58.73961
Muniz,Muniz,AR,-34.55622,-58.70739
Moron,Moron,AR,-34.65118,-58.62205
Monte Caseros,Monte Caseros,AR,-30.2518,-57.63537
Montecarlo,Montecarlo,AR,-26.56849,-54.7579
Merlo,Merlo,AR,-34.66536,-58.72744
Mercedes,Mercedes,AR,-34.65072,-59.43143
Mercedes,Mercedes,AR,-29.18416,-58.07519
Haedo,Haedo,AR,-34.64239,-58.59212
Mar del Plata,Mar del Plata,AR,-38.00042,-57.5562
Lujan,Lujan,AR,-34.5664,-59.11478
Los Polvorines,Los Polvorines,AR,-34.50316,-58.70596
Lomas de Zamora,Lomas de Zamora,AR,-34.7574,-58.40279
La Plata,La Plata,AR,-34.92126,-57.95442
La Paz,La Paz,AR,-30.74179,-59.64517
Jardin America,Jardin America,AR,-27.04346,-55.22698
Ituzaingo,Ituzaingo,AR,-27.58504,-56.68707
Hurlingham,Hurlingham,AR,-34.5904,-58.62904
Gualeguaychu,Gualeguaychu,AR,-33.00777,-58.51836
Gualeguay,Gualeguay,AR,-33.14091,-59.31257
Goya,Goya,AR,-29.13995,-59.26343
Gobernador Virasora,Gobernador Virasora,AR,-28.05,-56.03333
General Pacheco,General Pacheco,AR,-34.45256,-58.64312
General Jose de San Martin,General Jose de San Martin,AR,-26.53643,-59.34138
Garupa,Garupa,AR,-27.48315,-55.82924
Formosa,Formosa,AR,-26.18489,-58.17313
Fontana,Fontana,AR,-27.42039,-59.03731
Federal,Federal,AR,-30.95619,-58.7797
Esquina,Esquina,AR,-30.01476,-59.5289
El Soberbio,El Soberbio,AR,-27.29662,-54.19811
El Palomar,El Palomar,AR,-34.61771,-58.60153
Don Torcuato,Don Torcuato,AR,-34.49459,-58.62729
Dolores,Dolores,AR,-36.31539,-57.67546
Curuzu Cuatia,Curuzu Cuatia,AR,-29.79145,-58.0499
Corrientes,Corrientes,AR,-27.46784,-58.8344
Concordia,Concordia,AR,-31.39195,-58.01706
Concepcion del Uruguay,Concepcion del Uruguay,AR,-32.48463,-58.23217
Colon,Colon,AR,-32.22312,-58.14426
Colegiales,Colegiales,AR,-34.57365,-58.44924
Chascomus,Chascomus,AR,-35.57681,-58.01215
Chajari,Chajari,AR,-30.75482,-57.98196
Castelar,Castelar,AR,-34.65142,-58.64074
Campana,Campana,AR,-34.16327,-58.95919
Buenos Aires,Buenos Aires,AR,-34.61315,-58.37723
Boedo,Boedo,AR,-34.63333,-58.41667
Berazategui,Berazategui,AR,-34.76531,-58.21278
Bella Vista,Bella Vista,AR,-34.5651,-58.69034
Belgrano,Belgrano,AR,-34.5627,-58.45829
Barranqueras,Barranqueras,AR,-27.48132,-58.93925
Barracas,Barracas,AR,-34.64966,-58.38341
Balcarce,Balcarce,AR,-37.84638,-58.25549
Azul,Azul,AR,-36.77803,-59.85848
Ayacucho,Ayacucho,AR,-37.15276,-58.48838
Avellaneda,Avellaneda,AR,-29.11761,-59.65834
Aristobulo del Valle,Aristobulo del Valle,AR,-27.09571,-54.89344
Apostoles,Apostoles,AR,-27.91421,-55.75355
Zapala,Zapala,AR,-38.90056,-70.06674
Yerba Buena,Yerba Buena,AR,-26.81298,-65.29543
Villa Regina,Villa Regina,AR,-39.09631,-67.08374
Villa Paula de Sarmiento,Villa Paula de Sarmiento,AR,-31.4933,-68.53838
Villa Nueva,Villa Nueva,AR,-32.43289,-63.24811
Villa Maria,Villa Maria,AR,-32.40751,-63.24016
Villa Dolores,Villa Dolores,AR,-31.94504,-65.19025
Villa Constitucion,Villa Constitucion,AR,-33.22795,-60.32994
Villa Carlos Paz,Villa Carlos Paz,AR,-31.4183,-64.49008
Villa Angela,Villa Angela,AR,-27.57679,-60.71114
Villa Allende,Villa Allende,AR,-31.29368,-64.2977
Viedma,Viedma,AR,-40.81519,-63.0004
Victoria,Victoria,AR,-32.61841,-60.15478
Vera,Vera,AR,-29.45986,-60.21315
Venado Tuerto,Venado Tuerto,AR,-33.74585,-61.96711
Veinticinco de Mayo,Veinticinco de Mayo,AR,-35.43247,-60.17156
Ushuaia,Ushuaia,AR,-54.81084,-68.31591
Unquillo,Unquillo,AR,-31.23717,-64.31176
Tres Isletas,Tres Isletas,AR,-26.34067,-60.43207
Tres Arroyos,Tres Arroyos,AR,-38.37694,-60.27563
Trelew,Trelew,AR,-43.24895,-65.30505
Termas de Rio Hondo,Termas de Rio Hondo,AR,-27.49362,-64.85972
Tartagal,Tartagal,AR,-22.51682,-63.8056
Tafi Viejo,Tafi Viejo,AR,-26.7333,-65.26146
Sunchales,Sunchales,AR,-30.94478,-61.5597
Santo Tome,Santo Tome,AR,-31.66274,-60.7653
Santiago del Estero,Santiago del Estero,AR,-27.80047,-64.26285
Santa Rosa,Santa Rosa,AR,-36.61617,-64.28991
Santa Lucia,Santa Lucia,AR,-31.54055,-68.49794
Santa Fe,Santa Fe,AR,-31.64881,-60.70868
San Salvador de Jujuy,San Salvador de Jujuy,AR,-24.1928,-65.29342
San Ramon de la Nueva Oran,San Ramon de la Nueva Oran,AR,-23.13705,-64.32426
San Rafael,San Rafael,AR,-34.61531,-68.33238
San Pedro de Jujuy,San Pedro de Jujuy,AR,-24.23127,-64.86614
San Nicolas de los Arroyos,San Nicolas de los Arroyos,AR,-33.33425,-60.2108
San Miguel de Tucuman,San Miguel de Tucuman,AR,-26.81601,-65.21051
San Martin de los Andes,San Martin de los Andes,AR,-40.15789,-71.35337
San Martin,San Martin,AR,-33.08338,-68.47312
San Luis,San Luis,AR,-33.2914,-66.32467
San Justo,San Justo,AR,-30.78991,-60.59276
San Juan,San Juan,AR,-31.53726,-68.52568
San Jose de Jachal,San Jose de Jachal,AR,-30.24162,-68.74662
San Jorge,San Jorge,AR,-31.89706,-61.85993
San Francisco,San Francisco,AR,-31.42497,-62.08404
Catamarca,Catamarca,AR,-28.46957,-65.78524
San Antonio Oeste,San Antonio Oeste,AR,-40.73193,-64.94769
Salto,Salto,AR,-34.29175,-60.2545
Salta,Salta,AR,-24.80645,-65.41999
Rufino,Rufino,AR,-34.26237,-62.71128
Rosario,Rosario,AR,-32.94682,-60.63932
Rio Tercero,Rio Tercero,AR,-32.17675,-64.11295
Rio Segundo,Rio Segundo,AR,-31.6501,-63.91165
Rio Grande,Rio Grande,AR,-53.78773,-67.70975
Rio Gallegos,Rio Gallegos,AR,-51.6253,-69.25229
Rio Cuarto,Rio Cuarto,AR,-33.13044,-64.35272
Rio Colorado,Rio Colorado,AR,-38.99081,-64.09574
Rio Ceballos,Rio Ceballos,AR,-31.1697,-64.3175
Rawson,Rawson,AR,-43.30031,-65.10564
Rafaela,Rafaela,AR,-31.25285,-61.49078
Quitilipi,Quitilipi,AR,-26.8708,-60.21537
Punta Alta,Punta Alta,AR,-38.8805,-62.07503
Puerto Madryn,Puerto Madryn,AR,-42.76848,-65.03827
Profesor Salvador Mazza,Profesor Salvador Mazza,AR,-22.04897,-63.69075
Presidencia Roque Saenz Pena,Presidencia Roque Saenz Pena,AR,-26.79095,-60.44132
Pocito,Pocito,AR,-31.68333,-68.58333
Plottier,Plottier,AR,-38.96667,-68.23333
Pergamino,Pergamino,AR,-33.89101,-60.57462
Perez,Perez,AR,-32.99835,-60.76791
Pehuajo,Pehuajo,AR,-35.81081,-61.89897
Parana,Parana,AR,-31.73271,-60.52897
Palpala,Palpala,AR,-24.25798,-65.21358
Olavarria,Olavarria,AR,-36.89384,-60.32319
Nueve de Julio,Nueve de Julio,AR,-35.44394,-60.88463
Neuquen,Neuquen,AR,-38.95078,-68.0592
Morteros,Morteros,AR,-30.71066,-62.00714
Monteros,Monteros,AR,-27.16825,-65.49892
Mendoza,Mendoza,AR,-32.88946,-68.84582
Marcos Juarez,Marcos Juarez,AR,-32.6978,-62.10672
Machagai,Machagai,AR,-26.92617,-60.04852
Lincoln,Lincoln,AR,-34.86819,-61.52929
Libertador General San Martin,Libertador General San Martin,AR,-23.81305,-64.79353
Las Brenas,Las Brenas,AR,-27.08819,-61.08217
La Rioja,La Rioja,AR,-29.41328,-66.85637
La Falda,La Falda,AR,-31.09321,-64.48448
La Calera,La Calera,AR,-31.34582,-64.33849
Laboulaye,Laboulaye,AR,-34.12688,-63.39083
Junin,Junin,AR,-34.59391,-60.94644
Joaquin V. Gonzalez,Joaquin V. Gonzalez,AR,-25.11364,-64.12628
Jesus Maria,Jesus Maria,AR,-30.98153,-64.09424
Granadero Baigorria,Granadero Baigorria,AR,-32.85683,-60.71754
Gobernador Galvez,Gobernador Galvez,AR,-33.03016,-60.64045
General Villegas,General Villegas,AR,-35.03264,-63.01484
General Roca,General Roca,AR,-39.03333,-67.58333
General Pinedo,General Pinedo,AR,-27.32534,-61.28101
General Pico,General Pico,AR,-35.6593,-63.75787
General Mosconi,General Mosconi,AR,-22.59617,-63.811
Galvez,Galvez,AR,-32.02957,-61.22097
Firmat,Firmat,AR,-33.45937,-61.4832
Famailla,Famailla,AR,-27.05452,-65.40189
Esquel,Esquel,AR,-42.91147,-71.31947
Esperanza,Esperanza,AR,-31.44957,-60.93153
Embarcacion,Embarcacion,AR,-23.21003,-64.09965
Embalse,Embalse,AR,-32.20681,-64.40064
El Bolson,El Bolson,AR,-41.96051,-71.53336
Diamante,Diamante,AR,-32.0671,-60.64267
Dean Funes,Dean Funes,AR,-30.42498,-64.35274
Cutral-Co,Cutral-Co,AR,-38.93424,-69.23052
Cruz del Eje,Cruz del Eje,AR,-30.72644,-64.80387
Crespo,Crespo,AR,-32.03077,-60.30619
Cosquin,Cosquin,AR,-31.24525,-64.46574
Coronel Suarez,Coronel Suarez,AR,-37.45859,-61.93294
Coronda,Coronda,AR,-31.97365,-60.91935
Cordoba,Cordoba,AR,-31.40648,-64.18853
Comodoro Rivadavia,Comodoro Rivadavia,AR,-45.86256,-67.494
Cipolletti,Cipolletti,AR,-38.93392,-67.99032
Cinco Saltos,Cinco Saltos,AR,-38.82225,-68.06293
Chivilcoy,Chivilcoy,AR,-34.8969,-60.01909
Chimbas,Chimbas,AR,-31.49313,-68.53263
Chilecito,Chilecito,AR,-29.16163,-67.49934
Charata,Charata,AR,-27.21787,-61.18738
Chacabuco,Chacabuco,AR,-34.64203,-60.47124
Centenario,Centenario,AR,-38.82955,-68.1318
Caucete,Caucete,AR,-31.6515,-68.28216
Catriel,Catriel,AR,-37.87552,-67.79451
Juan Jose Castelli,Juan Jose Castelli,AR,-25.9466,-60.62008
Casilda,Casilda,AR,-33.04459,-61.16423
Carmen de Patagones,Carmen de Patagones,AR,-40.80255,-62.98349
Carcarana,Carcarana,AR,-32.85704,-61.15114
Capitan Bermudez,Capitan Bermudez,AR,-32.82262,-60.71852
Canada de Gomez,Canada de Gomez,AR,-32.82033,-61.39513
Caleta Olivia,Caleta Olivia,AR,-46.44785,-67.52274
Bell Ville,Bell Ville,AR,-32.63021,-62.68883
Bella Vista,Bella Vista,AR,-27.03424,-65.30196
Bahia Blanca,Bahia Blanca,AR,-38.7176,-62.26545
Arroyo Seco,Arroyo Seco,AR,-33.15365,-60.51168
Arroyito,Arroyito,AR,-31.41917,-63.05084
Arrecifes,Arrecifes,AR,-34.06306,-60.10261
Anatuya,Anatuya,AR,-28.4602,-62.83354
Alta Gracia,Alta Gracia,AR,-31.64978,-64.42972
Allen,Allen,AR,-38.97736,-67.82714
Alderetes,Alderetes,AR,-26.81787,-65.14202
Albardon,Albardon,AR,-31.43722,-68.52556
Aimogasta,Aimogasta,AR,-28.56003,-66.80737
Aguilares,Aguilares,AR,-27.4315,-65.61465
Balvanera,Balvanera,AR,-34.61032,-58.39766
Villa Santa Rita,Villa Santa Rita,AR,-34.61082,-58.481
Villa Mercedes,Villa Mercedes,AR,-33.67571,-65.45783
San Miguel,San Miguel,AR,-34.54335,-58.71229
San Carlos de Bariloche,San Carlos de Bariloche,AR,-41.14557,-71.30822
Adrogue,Adrogue,AR,-34.80041,-58.38384
Ingeniero Pablo Nogues,Ingeniero Pablo Nogues,AR,-34.47775,-58.70652
Villa Sarmiento,Villa Sarmiento,AR,-34.63364,-58.57047
Jose C. Paz,Jose C. Paz,AR,-34.51541,-58.76813
Pago Pago,Pago Pago,AS,-14.27806,-170.7025
Doebling,Doebling,AT,48.25,16.33333
Wolfsberg,Wolfsberg,AT,46.84056,14.84417
Wilten,Wilten,AT,47.25829,11.38808
Wiener Neustadt,Wiener Neustadt,AT,47.80485,16.23196
Vienna,Vienna,AT,48.20849,16.37208
Wetzelsdorf,Wetzelsdorf,AT,47.05293,15.39923
Wels,Wels,AT,48.16667,14.03333
Villach,Villach,AT,46.61028,13.85583
Traun,Traun,AT,48.22086,14.23833
Telfs,Telfs,AT,47.30707,11.06817
Strassgang,Strassgang,AT,47.03333,15.4
Stockerau,Stockerau,AT,48.38333,16.21667
Steyr,Steyr,AT,48.04274,14.42127
Simmering,Simmering,AT,48.18333,16.43333
Sankt Poelten,Sankt Poelten,AT,48.20762,15.63725
Sankt Peter,Sankt Peter,AT,47.05,15.46667
Sankt Peter,Sankt Peter,AT,46.62978,14.34016
Sankt Martin,Sankt Martin,AT,46.61667,14.28333
Salzburg,Salzburg,AT,47.79941,13.04399
Saalfelden am Steinernen Meer,Saalfelden am Steinernen Meer,AT,47.42681,12.848
Pradl,Pradl,AT,47.26539,11.4152
Perchtoldsdorf,Perchtoldsdorf,AT,48.11935,16.26607
Ottakring,Ottakring,AT,48.21667,16.3
Moedling,Moedling,AT,48.08605,16.28921
Meidling,Meidling,AT,48.16667,16.33333
Lustenau,Lustenau,AT,47.42642,9.65851
Linz,Linz,AT,48.30639,14.28611
Klosterneuburg,Klosterneuburg,AT,48.30521,16.32522
Klagenfurt am Woerthersee,Klagenfurt am Woerthersee,AT,46.62472,14.30528
Innsbruck,Innsbruck,AT,47.26266,11.39454
Innere Stadt,Innere Stadt,AT,48.20906,16.37135
Penzing,Penzing,AT,48.2,16.26667
Hoetting,Hoetting,AT,47.26815,11.36868
Hohenems,Hohenems,AT,47.36121,9.68694
Hietzing,Hietzing,AT,48.18623,16.2965
Hernals,Hernals,AT,48.22544,16.30871
Graz,Graz,AT,47.06733,15.44197
Fuenfhaus,Fuenfhaus,AT,48.19596,16.3183
Floridsdorf,Floridsdorf,AT,48.25,16.4
Feldkirch,Feldkirch,AT,47.23306,9.6
Essling,Essling,AT,48.21289,16.52442
Eggenberg,Eggenberg,AT,47.07,15.39871
Dornbirn,Dornbirn,AT,47.41427,9.74195
Bregenz,Bregenz,AT,47.50311,9.7471
Bludenz,Bludenz,AT,47.15476,9.82255
Baden,Baden,AT,48.00543,16.23264
Aspern,Aspern,AT,48.21806,16.48306
Amstetten,Amstetten,AT,48.1229,14.87206
Favoriten,Favoriten,AT,48.16116,16.38233
Donaustadt,Donaustadt,AT,48.2333,16.46002
Jakomini,Jakomini,AT,47.05441,15.44984
Lend,Lend,AT,47.08256,15.41589
Geidorf,Geidorf,AT,47.08393,15.444
Sankt Leonhard,Sankt Leonhard,AT,47.06924,15.45784
Andritz,Andritz,AT,47.11387,15.42348
Gries,Gries,AT,47.06236,15.42421
Waehring,Waehring,AT,48.22611,16.34484
Landstrasse,Landstrasse,AT,48.2019,16.38792
Margareten,Margareten,AT,48.1855,16.35373
Mariahilf,Mariahilf,AT,48.19571,16.35215
Neubau,Neubau,AT,48.20172,16.34715
Josefstadt,Josefstadt,AT,48.21243,16.34549
Alsergrund,Alsergrund,AT,48.22321,16.35506
Brigittenau,Brigittenau,AT,48.24275,16.37551
Scarborough,Scarborough,AU,-31.89578,115.76431
Rockingham,Rockingham,AU,-32.27682,115.72978
Port Hedland,Port Hedland,AU,-20.31215,118.61059
Perth,Perth,AU,-31.95224,115.8614
Mount Isa,Mount Isa,AU,-20.72523,139.49727
Mount Barker,Mount Barker,AU,-35.06667,138.86667
Morphett Vale,Morphett Vale,AU,-35.13333,138.51667
Mandurah,Mandurah,AU,-32.5269,115.7217
Kwinana,Kwinana,AU,-32.23013,115.78128
Kalgoorlie,Kalgoorlie,AU,-30.74614,121.4742
Gosnells,Gosnells,AU,-32.081,116.0054
Geraldton,Geraldton,AU,-28.77897,114.61459
Gawler,Gawler,AU,-34.60251,138.74902
Darwin,Darwin,AU,-12.46113,130.84185
Byford,Byford,AU,-32.22099,116.009
Busselton,Busselton,AU,-33.65249,115.3455
Bunbury,Bunbury,AU,-33.32711,115.64137
Australind,Australind,AU,-33.2792,115.71504
Alice Springs,Alice Springs,AU,-23.69748,133.88362
Albany,Albany,AU,-35.02692,117.88369
Adelaide,Adelaide,AU,-34.92866,138.59863
Yarraville,Yarraville,AU,-37.81667,144.9
Wollert,Wollert,AU,-37.58333,145.03333
Wodonga,Wodonga,AU,-36.12179,146.88809
Wheelers Hill,Wheelers Hill,AU,-37.9,145.18333
Westmead,Westmead,AU,-33.80383,150.98768
Werribee,Werribee,AU,-37.9,144.66667
Warwick,Warwick,AU,-28.21901,152.03438
Warrnambool,Warrnambool,AU,-38.38176,142.48799
Warragul,Warragul,AU,-38.15912,145.93118
Wantirna South,Wantirna South,AU,-37.88333,145.21667
Wangaratta,Wangaratta,AU,-36.35846,146.32056
Wallan,Wallan,AU,-37.41625,144.97859
Wahroonga,Wahroonga,AU,-33.71816,151.11561
Upper Coomera,Upper Coomera,AU,-27.87683,153.28572
Tuggeranong Administrative District,Tuggeranong Administrative District,AU,-35.41647,149.06954
Truganina,Truganina,AU,-37.81667,144.75
Traralgon,Traralgon,AU,-38.19528,146.5415
Townsville,Townsville,AU,-19.26639,146.80569
Torquay,Torquay,AU,-38.33085,144.32638
Toowoomba,Toowoomba,AU,-27.56056,151.95386
Thornbury,Thornbury,AU,-37.75819,145.00583
Thomastown,Thomastown,AU,-37.68333,145.01667
Templestowe,Templestowe,AU,-37.75405,145.14864
Tarneit,Tarneit,AU,-37.83634,144.65952
Taree,Taree,AU,-31.91099,152.45387
Tamworth,Tamworth,AU,-31.09048,150.92905
Sydney,Sydney,AU,-33.86785,151.20732
Surry Hills,Surry Hills,AU,-33.88374,151.21282
Surfers Paradise,Surfers Paradise,AU,-28.00274,153.42999
Sunbury,Sunbury,AU,-37.57742,144.72607
Strathfield,Strathfield,AU,-33.88096,151.07986
Springvale,Springvale,AU,-37.94853,145.15274
South Yarra,South Yarra,AU,-37.83834,144.99149
Southport,Southport,AU,-27.96724,153.39796
Shepparton,Shepparton,AU,-36.38047,145.39867
Seven Hills,Seven Hills,AU,-33.78333,150.93333
Seaford,Seaford,AU,-38.1,145.13333
Saint Kilda,Saint Kilda,AU,-37.8676,144.98099
Saint Ives,Saint Ives,AU,-33.72976,151.15977
Saint Albans,Saint Albans,AU,-37.73333,144.8
Ryde,Ryde,AU,-33.8188,151.1062
Rowville,Rowville,AU,-37.93333,145.23333
Rockhampton,Rockhampton,AU,-23.38032,150.50595
Rockdale,Rockdale,AU,-33.95,151.13333
Ringwood,Ringwood,AU,-37.81667,145.23333
Richmond,Richmond,AU,-37.81819,145.00176
Reservoir,Reservoir,AU,-37.71667,145
Quakers Hill,Quakers Hill,AU,-33.73333,150.88333
Preston,Preston,AU,-37.75,145.01667
Port Melbourne,Port Melbourne,AU,-37.83961,144.94228
Port Macquarie,Port Macquarie,AU,-31.43084,152.90894
Point Cook,Point Cook,AU,-37.91482,144.75088
Pascoe Vale,Pascoe Vale,AU,-37.73333,144.93333
Palm Beach,Palm Beach,AU,-28.11694,153.46584
Pakenham,Pakenham,AU,-38.07018,145.47411
Orange,Orange,AU,-33.28397,149.10018
Officer,Officer,AU,-38.05916,145.40947
North Melbourne,North Melbourne,AU,-37.79798,144.94512
Northcote,Northcote,AU,-37.76667,145
Noble Park,Noble Park,AU,-37.96667,145.16667
Newcastle,Newcastle,AU,-32.92953,151.7801
Nerang,Nerang,AU,-27.98941,153.33633
Narre Warren,Narre Warren,AU,-38.03333,145.3
Narangba,Narangba,AU,-27.20338,152.95923
Muswellbrook,Muswellbrook,AU,-32.26118,150.89009
Mulgrave,Mulgrave,AU,-37.92845,145.17708
Mount Waverley,Mount Waverley,AU,-37.87709,145.12939
Mount Martha,Mount Martha,AU,-38.26667,145.01667
Mount Gambier,Mount Gambier,AU,-37.8318,140.77919
Mount Eliza,Mount Eliza,AU,-38.18333,145.08333
Mount Druitt,Mount Druitt,AU,-33.76667,150.81667
Mosman,Mosman,AU,-33.83902,151.23956
Mornington,Mornington,AU,-38.21792,145.03876
Morayfield,Morayfield,AU,-27.10876,152.94907
South Morang,South Morang,AU,-37.65,145.1
Mooroolbark,Mooroolbark,AU,-37.78247,145.31682
Moonee Ponds,Moonee Ponds,AU,-37.76667,144.91667
Mitcham,Mitcham,AU,-37.81667,145.2
Miranda,Miranda,AU,-34.03857,151.10005
Mill Park,Mill Park,AU,-37.66667,145.06667
Mildura,Mildura,AU,-34.18551,142.16251
Merrylands,Merrylands,AU,-33.83333,150.98333
Mernda,Mernda,AU,-37.60075,145.09555
Melbourne,Melbourne,AU,-37.814,144.96332
Mascot,Mascot,AU,-33.92598,151.19347
Maryborough,Maryborough,AU,-25.54073,152.70493
Marrickville,Marrickville,AU,-33.90741,151.15546
Maroubra,Maroubra,AU,-33.95,151.23333
Manly,Manly,AU,-33.79798,151.28826
Maitland,Maitland,AU,-32.73308,151.5574
Mackay,Mackay,AU,-21.15345,149.16554
Liverpool,Liverpool,AU,-33.91938,150.92588
Lilydale,Lilydale,AU,-37.75,145.35
Lidcombe,Lidcombe,AU,-33.86436,151.0397
Launceston,Launceston,AU,-41.43876,147.13467
Lara,Lara,AU,-38.02388,144.40617
Langwarrin,Langwarrin,AU,-38.16667,145.16667
Lalor,Lalor,AU,-37.66667,145.01667
Lakemba,Lakemba,AU,-33.91972,151.07592
Kogarah,Kogarah,AU,-33.9681,151.13564
Keysborough,Keysborough,AU,-37.99116,145.17385
Kew,Kew,AU,-37.80639,145.03086
Kensington,Kensington,AU,-33.92019,151.22241
Horsham,Horsham,AU,-36.71131,142.19981
Hornsby,Hornsby,AU,-33.70244,151.09931
Hobart,Hobart,AU,-42.87936,147.32941
Hawthorn South,Hawthorn South,AU,-37.8329,145.0367
Hawthorn,Hawthorn,AU,-37.81992,145.0358
Hampton Park,Hampton Park,AU,-38.03333,145.25
Gympie,Gympie,AU,-26.18979,152.66499
Griffith,Griffith,AU,-34.28853,146.05093
Greenvale,Greenvale,AU,-37.63333,144.86667
Greensborough,Greensborough,AU,-37.70462,145.10302
Granville,Granville,AU,-33.8406,151.00748
Grafton,Grafton,AU,-29.68104,152.93394
Goulburn,Goulburn,AU,-34.75155,149.72086
Gold Coast,Gold Coast,AU,-28.00029,153.43088
Glen Waverley,Glen Waverley,AU,-37.87811,145.16476
Glenroy,Glenroy,AU,-37.7,144.93333
Glen Iris,Glen Iris,AU,-37.86667,145.06667
Glenferrie,Glenferrie,AU,-37.83333,145.05
Gladstone,Gladstone,AU,-23.84852,151.25775
Geelong,Geelong,AU,-38.14711,144.36069
Frankston East,Frankston East,AU,-38.13333,145.13333
Frankston,Frankston,AU,-38.14458,145.12291
Footscray,Footscray,AU,-37.8,144.9
Fairfield,Fairfield,AU,-33.86667,150.95
Essendon,Essendon,AU,-37.74981,144.9109
Epping,Epping,AU,-37.65,145.03333
Epping,Epping,AU,-33.77271,151.08184
Engadine,Engadine,AU,-34.06564,151.01266
Eltham,Eltham,AU,-37.73333,145.15
Eight Mile Plains,Eight Mile Plains,AU,-27.58333,153.1
Echuca,Echuca,AU,-36.14057,144.75185
Eastwood,Eastwood,AU,-33.79176,151.08057
Earlwood,Earlwood,AU,-33.9209,151.12506
Dubbo,Dubbo,AU,-32.24295,148.60484
Doreen,Doreen,AU,-37.6,145.15
Doncaster East,Doncaster East,AU,-37.78761,145.14888
Doncaster,Doncaster,AU,-37.78828,145.12373
Devonport,Devonport,AU,-41.17695,146.35152
Deer Park,Deer Park,AU,-37.76722,144.76657
Deception Bay,Deception Bay,AU,-27.19354,153.02631
Dandenong,Dandenong,AU,-37.98333,145.2
Croydon,Croydon,AU,-37.8,145.28333
Cronulla,Cronulla,AU,-34.06251,151.14961
Cranbourne,Cranbourne,AU,-38.11342,145.28326
Craigieburn,Craigieburn,AU,-37.6,144.95
Corio,Corio,AU,-38.08333,144.38333
Coorparoo,Coorparoo,AU,-27.49325,153.05826
Coogee,Coogee,AU,-33.9205,151.25522
Coffs Harbour,Coffs Harbour,AU,-30.29626,153.11351
Coburg,Coburg,AU,-37.75,144.96667
Clayton,Clayton,AU,-37.91667,145.11667
Wollongong,Wollongong,AU,-34.424,150.89345
Chatswood,Chatswood,AU,-33.8,151.18333
Cessnock,Cessnock,AU,-32.83211,151.35623
Caulfield North,Caulfield North,AU,-37.8739,145.02485
Castle Hill,Castle Hill,AU,-33.73333,151
Carrum Downs,Carrum Downs,AU,-38.09968,145.17248
Carnegie,Carnegie,AU,-37.89359,145.05534
Carlton,Carlton,AU,-37.8,144.96667
Carlingford,Carlingford,AU,-33.78269,151.04888
Capalaba,Capalaba,AU,-27.54333,153.20287
Canberra,Canberra,AU,-35.28346,149.12807
Camberwell,Camberwell,AU,-37.84205,145.0694
Caloundra,Caloundra,AU,-26.80346,153.12195
Cairns,Cairns,AU,-16.92366,145.76613
Caboolture,Caboolture,AU,-27.08465,152.9511
Burwood,Burwood,AU,-33.88333,151.1
Burnie,Burnie,AU,-41.05584,145.90375
Bundaberg,Bundaberg,AU,-24.86621,152.3479
Buderim,Buderim,AU,-26.68443,153.05705
Brunswick,Brunswick,AU,-37.76667,144.96667
Broken Hill,Broken Hill,AU,-31.9652,141.4512
Brisbane,Brisbane,AU,-27.46794,153.02809
Brighton,Brighton,AU,-37.90561,145.00279
Boronia,Boronia,AU,-37.86667,145.28333
Blacktown,Blacktown,AU,-33.76667,150.91667
Bexley,Bexley,AU,-33.95,151.11667
Berwick,Berwick,AU,-38.03333,145.35
Bentleigh East,Bentleigh East,AU,-37.91928,145.05301
Bentleigh,Bentleigh,AU,-37.91806,145.03544
Bendigo,Bendigo,AU,-36.75818,144.28024
Baulkham Hills,Baulkham Hills,AU,-33.75881,150.99292
Bathurst,Bathurst,AU,-33.41665,149.5806
Batemans Bay,Batemans Bay,AU,-35.70658,150.17541
Banora Point,Banora Point,AU,-28.21298,153.53634
Bankstown,Bankstown,AU,-33.91667,151.03333
Ballarat,Ballarat,AU,-37.56622,143.84957
Bairnsdale,Bairnsdale,AU,-37.82289,147.61041
Bacchus Marsh,Bacchus Marsh,AU,-37.67268,144.43829
Auburn,Auburn,AU,-33.85,151.03333
Ashfield,Ashfield,AU,-33.88834,151.12274
Ascot Vale,Ascot Vale,AU,-37.77988,144.92276
Armidale,Armidale,AU,-30.50123,151.66553
Albany Creek,Albany Creek,AU,-27.35364,152.96848
Maroochydore,Maroochydore,AU,-26.66008,153.09953
Cheltenham,Cheltenham,AU,-37.96944,145.04806
Randwick,Randwick,AU,-33.91439,151.24895
Dee Why,Dee Why,AU,-33.7511,151.28886
Umina Beach,Umina Beach,AU,-33.52314,151.31325
Palmerston,Palmerston,AU,-12.48602,130.9833
Hervey Bay,Hervey Bay,AU,-25.28762,152.76936
Sydney Central Business District,Sydney Central Business District,AU,-33.86482,151.20773
Kingsford,Kingsford,AU,-33.92399,151.22749
Springfield Lakes,Springfield Lakes,AU,-27.66757,152.92488
Bracken Ridge,Bracken Ridge,AU,-27.3171,153.03097
Kallangur,Kallangur,AU,-27.25204,152.99226
North Lakes,North Lakes,AU,-27.22426,153.02075
The Gap,The Gap,AU,-27.44187,152.93861
Caroline Springs,Caroline Springs,AU,-37.74124,144.73631
Hoppers Crossing,Hoppers Crossing,AU,-37.88264,144.7003
Logan City,Logan City,AU,-27.63917,153.10944
Carindale,Carindale,AU,-27.50578,153.10236
Parramatta,Parramatta,AU,-33.8178,151.00348
Ferntree Gully,Ferntree Gully,AU,-37.88461,145.29539
Adelaide Hills,Adelaide Hills,AU,-34.91119,138.70735
Canning Vale,Canning Vale,AU,-32.05799,115.91814
Glenmore Park,Glenmore Park,AU,-33.79068,150.6693
Southbank,Southbank,AU,-37.8228,144.96434
Docklands,Docklands,AU,-37.8149,144.95052
Helensvale,Helensvale,AU,-27.91828,153.33275
Elwood,Elwood,AU,-37.88214,144.98215
Burwood,Burwood,AU,-37.84978,145.11901
Balwyn North,Balwyn North,AU,-37.79086,145.09386
Malvern East,Malvern East,AU,-37.87397,145.04253
Brighton East,Brighton East,AU,-37.90232,145.01734
Redbank Plains,Redbank Plains,AU,-27.64613,152.85965
Labrador,Labrador,AU,-27.94402,153.39815
St Albans,St Albans,AU,-37.74496,144.80049
Endeavour Hills,Endeavour Hills,AU,-37.97695,145.25866
Kellyville,Kellyville,AU,-33.71028,150.95095
Taylors Lakes,Taylors Lakes,AU,-37.69863,144.78631
Cherrybrook,Cherrybrook,AU,-33.72197,151.04607
Roxburgh Park,Roxburgh Park,AU,-37.62581,144.92555
Prestons,Prestons,AU,-33.94185,150.8717
Wyndham Vale,Wyndham Vale,AU,-37.89138,144.62368
Ballajura,Ballajura,AU,-31.84062,115.89549
Willetton,Willetton,AU,-32.05251,115.88782
Glenwood,Glenwood,AU,-33.73333,150.93284
Cabramatta,Cabramatta,AU,-33.89743,150.93446
Campsie,Campsie,AU,-33.9125,151.10279
Casula,Casula,AU,-33.95222,150.89949
Cranebrook,Cranebrook,AU,-33.7061,150.7094
Greenacre,Greenacre,AU,-33.90034,151.05563
Greystanes,Greystanes,AU,-33.82346,150.94607
Ellenbrook,Ellenbrook,AU,-31.76737,115.96936
Alexandra Hills,Alexandra Hills,AU,-27.53221,153.22889
Calamvale,Calamvale,AU,-27.62329,153.04785
Yagoona,Yagoona,AU,-33.9049,151.01996
Highton,Highton,AU,-38.17058,144.3114
Pacific Pines,Pacific Pines,AU,-27.93994,153.31436
Robina,Robina,AU,-28.07071,153.39329
Paralowie,Paralowie,AU,-34.75705,138.60819
Baldivis,Baldivis,AU,-32.32889,115.83047
Dianella,Dianella,AU,-31.88822,115.87186
Duncraig,Duncraig,AU,-31.83291,115.7759
Morley,Morley,AU,-31.88775,115.9099
Thornlie,Thornlie,AU,-32.06003,115.955
Landsdale,Landsdale,AU,-31.8075,115.86599
Punchbowl,Punchbowl,AU,-33.92893,151.05111
Parafield Gardens,Parafield Gardens,AU,-34.78254,138.61077
Hillside,Hillside,AU,-37.69047,144.74172
St Clair,St Clair,AU,-33.79728,150.7847
Kirwan,Kirwan,AU,-19.30323,146.72531
Bundoora,Bundoora,AU,-37.69825,145.05967
Forest Lake,Forest Lake,AU,-27.62563,152.96883
Sunnybank Hills,Sunnybank Hills,AU,-27.61025,153.05388
Rochedale South,Rochedale South,AU,-27.59521,153.12332
Keilor East,Keilor East,AU,-37.73261,144.86504
Cranbourne East,Cranbourne East,AU,-38.11531,145.29814
Cranbourne North,Cranbourne North,AU,-38.07758,145.29871
Cranbourne West,Cranbourne West,AU,-38.0965,145.26707
Narre Warren South,Narre Warren South,AU,-38.04369,145.2923
Dandenong North,Dandenong North,AU,-37.96649,145.2081
Frankston South,Frankston South,AU,-38.16604,145.13643
Sunshine West,Sunshine West,AU,-37.79117,144.81637
Altona Meadows,Altona Meadows,AU,-37.88413,144.78367
Taylors Hill,Taylors Hill,AU,-37.70988,144.75483
Hurstville,Hurstville,AU,-33.9677,151.10149
West Pennant Hills,West Pennant Hills,AU,-33.7457,151.04764
City of Port Phillip,City of Port Phillip,AU,-37.83382,144.93834
Sunshine Coast,Sunshine Coast,AU,-26.65682,153.07955
Melbourne City Centre,Melbourne City Centre,AU,-37.81501,144.96657
Adelaide city centre,Adelaide city centre,AU,-34.92873,138.60334
Wollongong city centre,Wollongong city centre,AU,-34.4279,150.89268
Tanki Leendert,Tanki Leendert,AW,12.53914,-70.02004
San Nicolas,San Nicolas,AW,12.43624,-69.90713
Oranjestad,Oranjestad,AW,12.52398,-70.02703
Noord,Noord,AW,12.56596,-70.03198
Mariehamn,Mariehamn,AX,60.09726,19.93481
Ahmadbayli,Ahmadbayli,AZ,39.88074,48.39158
Susa,Susa,AZ,39.76006,46.74989
Salyan,Salyan,AZ,39.59621,48.98479
Saatli,Saatli,AZ,39.93214,48.36892
Neftcala,Neftcala,AZ,39.3768,49.247
Naxcivan,Naxcivan,AZ,39.20889,45.41222
Lerik,Lerik,AZ,38.77388,48.41497
Lankaran,Lankaran,AZ,38.75428,48.85062
Imishli,Imishli,AZ,39.87095,48.05995
Fizuli,Fizuli,AZ,39.60094,47.14529
Jalilabad,Jalilabad,AZ,39.20963,48.49186
Pushkino,Pushkino,AZ,39.45833,48.545
Beylagan,Beylagan,AZ,39.77556,47.61861
Astara,Astara,AZ,38.45598,48.87498
Sirvan,Sirvan,AZ,39.93778,48.929
Agdam,Agdam,AZ,39.99096,46.92736
Zaqatala,Zaqatala,AZ,41.6316,46.64479
Zabrat,Zabrat,AZ,40.47746,49.94174
Yevlakh,Yevlakh,AZ,40.61832,47.15014
Goygol,Goygol,AZ,40.58584,46.3189
Xacmaz,Xacmaz,AZ,41.46426,48.80565
Ujar,Ujar,AZ,40.51902,47.65423
Tovuz,Tovuz,AZ,40.99249,45.62838
Terter,Terter,AZ,40.34201,46.93161
Sumqayit,Sumqayit,AZ,40.58972,49.66861
Qaracuxur,Qaracuxur,AZ,40.39667,49.97361
Shamkhor,Shamkhor,AZ,40.82975,46.0178
Shamakhi,Shamakhi,AZ,40.63141,48.64137
Sheki,Sheki,AZ,41.19194,47.17056
Sabuncu,Sabuncu,AZ,40.4425,49.94806
Sabirabad,Sabirabad,AZ,40.00869,48.47701
Qusar,Qusar,AZ,41.4275,48.4302
Quba,Quba,AZ,41.36108,48.51341
Haciqabul,Haciqabul,AZ,40.03874,48.94286
Qazax,Qazax,AZ,41.09246,45.36561
Haci Zeynalabdin,Haci Zeynalabdin,AZ,40.62333,49.55861
Mingachevir,Mingachevir,AZ,40.76422,47.06227
Mastaga,Mastaga,AZ,40.52983,50.00616
Mardakan,Mardakan,AZ,40.49182,50.14292
Lokbatan,Lokbatan,AZ,40.3256,49.73376
Kyurdarmir,Kyurdarmir,AZ,40.34257,48.15649
Khirdalan,Khirdalan,AZ,40.44808,49.75502
Ismayilli,Ismayilli,AZ,40.78485,48.15141
Yeni Suraxani,Yeni Suraxani,AZ,40.43026,50.03598
Goeycay,Goeycay,AZ,40.65055,47.74219
Hovsan,Hovsan,AZ,40.37444,50.08528
Ganja,Ganja,AZ,40.68157,46.36134
Divichibazar,Divichibazar,AZ,41.20117,48.98712
Buzovna,Buzovna,AZ,40.51903,50.11438
Biny Selo,Biny Selo,AZ,40.45076,50.08686
Barda,Barda,AZ,40.37577,47.12619
Bilajari,Bilajari,AZ,40.4444,49.80566
Baku,Baku,AZ,40.37767,49.89201
Amirdzhan,Amirdzhan,AZ,40.42639,49.98361
Aghsu,Aghsu,AZ,40.57028,48.40087
Agdas,Agdas,AZ,40.64699,47.4738
Agdzhabedy,Agdzhabedy,AZ,40.05015,47.45937
Bakixanov,Bakixanov,AZ,40.41894,49.96693
Zenica,Zenica,BA,44.20169,17.90397
Visoko,Visoko,BA,43.98889,18.17806
Velika Kladusa,Velika Kladusa,BA,45.18497,15.80579
Tuzla,Tuzla,BA,44.53842,18.66709
Trebinje,Trebinje,BA,42.71197,18.34362
Travnik,Travnik,BA,44.22637,17.66583
Sarajevo,Sarajevo,BA,43.84864,18.35644
Prijedor,Prijedor,BA,44.97991,16.71401
Mostar,Mostar,BA,43.34333,17.80806
Lukavac,Lukavac,BA,44.54245,18.52618
Ilidza,Ilidza,BA,43.83148,18.30697
Gradacac,Gradacac,BA,44.87851,18.42764
Gracanica,Gracanica,BA,44.70307,18.3101
Gorazde,Gorazde,BA,43.66795,18.97564
Doboj,Doboj,BA,44.73179,18.08698
Cazin,Cazin,BA,44.96694,15.94306
Bugojno,Bugojno,BA,44.05722,17.45083
Brcko,Brcko,BA,44.87162,18.8163
Bosanska Krupa,Bosanska Krupa,BA,44.8825,16.15139
Bijeljina,Bijeljina,BA,44.75874,19.21437
Bihac,Bihac,BA,44.81694,15.87083
Banja Luka,Banja Luka,BA,44.77879,17.20629
Konjic,Konjic,BA,43.65126,17.96082
Bridgetown,Bridgetown,BB,13.10732,-59.62021
Thakurgaon,Thakurgaon,BD,26.03097,88.46989
Teknaf,Teknaf,BD,20.85829,92.29773
Tungi,Tungi,BD,23.89154,90.40232
Sylhet,Sylhet,BD,24.89904,91.87198
Dohar,Dohar,BD,23.59311,90.14251
Sunamganj,Sunamganj,BD,25.06889,91.40243
Jamalpur,Jamalpur,BD,24.91965,89.94812
Shibganj,Shibganj,BD,25.00146,89.32266
Shibganj,Shibganj,BD,24.68501,88.15638
Satkhira,Satkhira,BD,22.70817,89.07185
Sirajganj,Sirajganj,BD,24.45771,89.70802
Netrakona,Netrakona,BD,24.88352,90.72898
Narsingdi,Narsingdi,BD,23.92298,90.71768
Sandwip,Sandwip,BD,22.51409,91.45491
Shahzadpur,Shahzadpur,BD,24.17687,89.5988
Ramganj,Ramganj,BD,23.1006,90.84989
Rajshahi,Rajshahi,BD,24.374,88.60114
Pirojpur,Pirojpur,BD,22.57965,89.97521
Panchagarh,Panchagarh,BD,26.33338,88.55777
Patiya,Patiya,BD,22.29543,91.979
Parbatipur,Parbatipur,BD,25.66369,88.93093
Narayanganj,Narayanganj,BD,23.61352,90.50298
Nalchiti,Nalchiti,BD,22.63696,90.27195
Nagarpur,Nagarpur,BD,24.05783,89.87696
Nageswari,Nageswari,BD,25.96817,89.69153
Mymensingh,Mymensingh,BD,24.75636,90.40646
Muktagacha,Muktagacha,BD,24.76484,90.25698
Mirzapur,Mirzapur,BD,24.10287,90.09841
Maulavi Bazar,Maulavi Bazar,BD,24.48888,91.77075
Morrelgonj,Morrelgonj,BD,22.45566,89.85584
Mehendiganj,Mehendiganj,BD,22.82257,90.52859
Mathba,Mathba,BD,22.28616,89.95883
Lalmonirhat,Lalmonirhat,BD,25.91719,89.44595
Laksham,Laksham,BD,23.24018,91.12143
Comilla,Comilla,BD,23.46186,91.18503
Rangpur,Rangpur,BD,25.74664,89.25166
Kushtia,Kushtia,BD,23.9028,89.11943
Kaliganj,Kaliganj,BD,23.40964,89.13801
Jhingergacha,Jhingergacha,BD,23.11134,89.09061
Joypur Hat,Joypur Hat,BD,25.10147,89.02734
Ishwardi,Ishwardi,BD,24.12858,89.06573
Habiganj,Habiganj,BD,24.38044,91.41299
Gaurnadi,Gaurnadi,BD,22.97372,90.22376
Gafargaon,Gafargaon,BD,24.432,90.5585
Feni,Feni,BD,23.0144,91.3966
Raipur,Raipur,BD,23.0391,90.76808
Sarankhola,Sarankhola,BD,22.31006,89.79113
Ramna Maidan,Ramna Maidan,BD,23.73333,90.4
Dhaka,Dhaka,BD,23.7104,90.40744
Chilmari,Chilmari,BD,25.55613,89.67097
Chhagalnaiya,Chhagalnaiya,BD,23.02475,91.51091
Lalmohan,Lalmohan,BD,22.33774,90.73708
Khagrachhari,Khagrachhari,BD,23.10787,91.97007
Chhatak,Chhatak,BD,25.03852,91.66958
Bhatpara Abhaynagar,Bhatpara Abhaynagar,BD,23.01472,89.43936
Bheramara,Bheramara,BD,24.02452,88.99234
Bhairab Bazar,Bhairab Bazar,BD,24.0524,90.9764
Bandarban,Bandarban,BD,22.19534,92.21946
Kalia,Kalia,BD,23.043,89.63094
Baniachang,Baniachang,BD,24.51863,91.35787
Bajitpur,Bajitpur,BD,24.21623,90.95002
Bagerhat,Bagerhat,BD,22.65657,89.79123
Badarganj,Badarganj,BD,25.67419,89.05377
Narail,Narail,BD,23.15509,89.49515
Tungipara,Tungipara,BD,22.89983,89.90326
Sonargaon,Sonargaon,BD,23.65,90.61667
Shahbazpur Town,Shahbazpur Town,BD,24.05296,91.17193
Sarishabari,Sarishabari,BD,24.75127,89.83126
Sakhipur,Sakhipur,BD,24.31988,90.16943
Raojan,Raojan,BD,22.53511,91.91919
Phultala,Phultala,BD,22.71673,89.51194
Palang,Palang,BD,23.21824,90.35076
Par Naogaon,Par Naogaon,BD,24.80418,88.94875
Nagar Naluakot,Nagar Naluakot,BD,24.15608,90.7728
Nabinagar,Nabinagar,BD,23.88791,90.96792
Mohammadpur,Mohammadpur,BD,24.89843,88.52844
Matuail,Matuail,BD,23.71211,90.45983
Maijdi,Maijdi,BD,22.86667,91.1
Lakshmipur,Lakshmipur,BD,22.9443,90.83005
Kesabpur,Kesabpur,BD,22.90725,89.21954
Kafrul,Kafrul,BD,23.78822,90.37359
Gazipur,Gazipur,BD,23.99844,90.42234
Hajiganj,Hajiganj,BD,23.25191,90.85508
Gopalganj,Gopalganj,BD,23.22348,90.06041
Faridpur,Faridpur,BD,23.60612,89.84064
Dukuria,Dukuria,BD,23.71095,90.37414
Dohazari,Dohazari,BD,22.16385,92.07333
Dinajpur,Dinajpur,BD,25.62745,88.63779
Uttar Char Fasson,Uttar Char Fasson,BD,22.22647,90.71275
Chattogram,Chattogram,BD,22.3384,91.83168
Char Bhadrasan,Char Bhadrasan,BD,23.30916,90.22698
Charamaddi,Charamaddi,BD,22.642,90.42598
Chandpur,Chandpur,BD,23.22714,90.65433
Burirchar,Burirchar,BD,22.13991,90.20636
Bhatara,Bhatara,BD,23.8,90.45
Bera,Bera,BD,24.07821,89.63262
Burhanuddin,Burhanuddin,BD,22.49518,90.72391
Ayla Patakata,Ayla Patakata,BD,22.21726,90.20959
Ashuganj City,Ashuganj City,BD,24.04016,91.0117
Satkania,Satkania,BD,22.07639,92.04955
Cox's Bazar,Cox's Bazar,BD,21.43973,92.00955
Khulna,Khulna,BD,22.80979,89.56439
Bhola,Bhola,BD,22.68759,90.64403
Barishal,Barishal,BD,22.70497,90.37013
Rangamati,Rangamati,BD,22.64317,92.19186
Jessore,Jessore,BD,23.16971,89.21371
Brahmanbaria,Brahmanbaria,BD,23.97464,91.11228
Pabna,Pabna,BD,24.00644,89.2372
Tangail,Tangail,BD,24.24984,89.91655
Bogra,Bogra,BD,24.85098,89.37108
Pirgaaj,Pirgaaj,BD,25.85587,88.35943
Nawabganj,Nawabganj,BD,24.59025,88.27444
Madaripur,Madaripur,BD,23.17097,90.20935
Sherpur,Sherpur,BD,25.01881,90.01751
Kishorganj,Kishorganj,BD,24.43944,90.78291
Manikganj,Manikganj,BD,23.85768,90.00957
Savar,Savar,BD,23.84858,90.25002
Hathazari,Hathazari,BD,22.50515,91.81339
Manikchari,Manikchari,BD,22.83957,91.84128
Bhandaria,Bhandaria,BD,22.48898,90.06273
Bibir Hat,Bibir Hat,BD,22.68347,91.79058
Saidpur,Saidpur,BD,25.77769,88.89169
Taluker Char Doani,Taluker Char Doani,BD,22.14002,89.94137
Natona,Natona,BD,22.05128,90.03197
Puthia,Puthia,BD,24.36537,88.83431
Natore,Natore,BD,24.41112,88.98673
Srimangal,Srimangal,BD,24.30652,91.72955
Patuakhali,Patuakhali,BD,22.36833,90.3458
Dhanmondi,Dhanmondi,BD,23.74,90.385
Pallabi,Pallabi,BD,23.825,90.37
Azimpur,Azimpur,BD,23.7298,90.3854
Paotana Hat,Paotana Hat,BD,25.66473,89.5026
Karnaphuli,Karnaphuli,BD,22.69056,92.23472
Bhanga,Bhanga,BD,23.39194,89.98389
Paltan,Paltan,BD,23.73625,90.41426
Mirpur Model Thana,Mirpur Model Thana,BD,23.80931,90.36093
Zwijndrecht,Zwijndrecht,BE,51.21979,4.32664
Zwevegem,Zwevegem,BE,50.81268,3.33848
Zottegem,Zottegem,BE,50.86955,3.81052
Zonhoven,Zonhoven,BE,50.99064,5.36819
Zolder,Zolder,BE,51.02455,5.30983
Zemst,Zemst,BE,50.98318,4.46079
Zele,Zele,BE,51.06566,4.0403
Zedelgem,Zedelgem,BE,51.14236,3.1368
Zaventem,Zaventem,BE,50.88365,4.47298
Wondelgem,Wondelgem,BE,51.08705,3.70909
Woluwe-Saint-Lambert,Woluwe-Saint-Lambert,BE,50.84389,4.42912
Wilrijk,Wilrijk,BE,51.16734,4.39513
Willebroek,Willebroek,BE,51.06041,4.36019
Wevelgem,Wevelgem,BE,50.8,3.16667
Wetteren,Wetteren,BE,51.00526,3.88341
Westerlo,Westerlo,BE,51.09049,4.91544
Wervik,Wervik,BE,50.78069,3.03854
Wavre,Wavre,BE,50.71717,4.60138
Watermael-Boitsfort,Watermael-Boitsfort,BE,50.80154,4.41436
Waterloo,Waterloo,BE,50.71469,4.3991
Waregem,Waregem,BE,50.88898,3.42756
Walcourt,Walcourt,BE,50.25401,4.43796
Vise,Vise,BE,50.7376,5.69907
Vilvoorde,Vilvoorde,BE,50.92814,4.42938
Verviers,Verviers,BE,50.58907,5.86241
Uccle,Uccle,BE,50.80225,4.33943
Turnhout,Turnhout,BE,51.32254,4.94471
Tubize,Tubize,BE,50.69059,4.2009
Tournai,Tournai,BE,50.60715,3.38932
Torhout,Torhout,BE,51.0656,3.10085
Tongeren,Tongeren,BE,50.78054,5.46484
Tienen,Tienen,BE,50.80745,4.9378
Tielt,Tielt,BE,50.99931,3.32707
Tessenderlo,Tessenderlo,BE,51.06513,5.08856
Tervuren,Tervuren,BE,50.82372,4.51418
Temse,Temse,BE,51.12794,4.21372
Stekene,Stekene,BE,51.2099,4.03651
Stabroek,Stabroek,BE,51.33189,4.37127
Soumagne,Soumagne,BE,50.61385,5.74679
Soignies,Soignies,BE,50.57904,4.07129
Sint-Truiden,Sint-Truiden,BE,50.81679,5.18647
Sint-Pieters-Leeuw,Sint-Pieters-Leeuw,BE,50.77926,4.24355
Sint-Niklaas,Sint-Niklaas,BE,51.16509,4.1437
Sint-Kruis,Sint-Kruis,BE,51.21399,3.24949
Sint-Katelijne-Waver,Sint-Katelijne-Waver,BE,51.06691,4.53469
Sint-Gillis-Waas,Sint-Gillis-Waas,BE,51.21914,4.12374
Sint-Genesius-Rode,Sint-Genesius-Rode,BE,50.74645,4.35754
Sint-Andries,Sint-Andries,BE,51.19696,3.17891
Sint-Amandsberg,Sint-Amandsberg,BE,51.05947,3.74943
Seraing,Seraing,BE,50.58362,5.50115
Schoten,Schoten,BE,51.25251,4.50268
Schilde,Schilde,BE,51.24107,4.58336
Schaerbeek,Schaerbeek,BE,50.86935,4.37737
Saint-Nicolas,Saint-Nicolas,BE,50.62837,5.53243
Saint-Josse-ten-Noode,Saint-Josse-ten-Noode,BE,50.8538,4.37282
Saint-Gilles,Saint-Gilles,BE,50.82763,4.34389
Saint-Ghislain,Saint-Ghislain,BE,50.44816,3.81886
Rotselaar,Rotselaar,BE,50.95302,4.71665
Ronse,Ronse,BE,50.74574,3.6005
Roeselare,Roeselare,BE,50.94653,3.12269
Rixensart,Rixensart,BE,50.71229,4.52529
Riemst,Riemst,BE,50.80995,5.60131
Ranst,Ranst,BE,51.18983,4.56533
Quaregnon,Quaregnon,BE,50.44067,3.8653
Puurs,Puurs,BE,51.07409,4.28844
Putte,Putte,BE,51.05337,4.63263
Poperinge,Poperinge,BE,50.85386,2.72659
Pont-a-Celles,Pont-a-Celles,BE,50.50518,4.36887
Peruwelz,Peruwelz,BE,50.50819,3.59373
Peer,Peer,BE,51.1303,5.45952
Overijse,Overijse,BE,50.77436,4.53461
Oupeye,Oupeye,BE,50.71184,5.6468
Oudenaarde,Oudenaarde,BE,50.85168,3.60891
Oostkamp,Oostkamp,BE,51.15432,3.23128
Ostend,Ostend,BE,51.21551,2.927
Nivelles,Nivelles,BE,50.59833,4.32848
Ninove,Ninove,BE,50.82776,4.02657
Nijlen,Nijlen,BE,51.16096,4.67008
Neerpelt,Neerpelt,BE,51.22807,5.4427
Namur,Namur,BE,50.4669,4.86746
Mouscron,Mouscron,BE,50.74497,3.20639
Mortsel,Mortsel,BE,51.16697,4.45127
Morlanwelz-Mariemont,Morlanwelz-Mariemont,BE,50.45502,4.24519
Montignies-sur-Sambre,Montignies-sur-Sambre,BE,50.41081,4.49109
Mons,Mons,BE,50.45413,3.95229
Molenbeek-Saint-Jean,Molenbeek-Saint-Jean,BE,50.8499,4.31248
Mol,Mol,BE,51.19188,5.11662
Middelkerke,Middelkerke,BE,51.18532,2.82077
Merksem,Merksem,BE,51.24623,4.44903
Merelbeke,Merelbeke,BE,50.99447,3.74621
Menen,Menen,BE,50.79722,3.12245
Meise,Meise,BE,50.93934,4.32655
Mechelen-aan-de-Maas,Mechelen-aan-de-Maas,BE,50.96589,5.69144
Mechelen,Mechelen,BE,51.02574,4.47762
Mariakerke,Mariakerke,BE,51.07476,3.68289
Marcinelle,Marcinelle,BE,50.39216,4.44388
Marchienne-au-Pont,Marchienne-au-Pont,BE,50.40573,4.3953
Marche-en-Famenne,Marche-en-Famenne,BE,50.22678,5.34416
Manage,Manage,BE,50.50312,4.23589
Maldegem,Maldegem,BE,51.20737,3.44511
Maasmechelen,Maasmechelen,BE,50.96545,5.69452
Maaseik,Maaseik,BE,51.09802,5.78379
Louvain-la-Neuve,Louvain-la-Neuve,BE,50.66829,4.61443
Lommel,Lommel,BE,51.23074,5.31349
Lokeren,Lokeren,BE,51.10364,3.99339
Lochristi,Lochristi,BE,51.09644,3.83194
Lille,Lille,BE,51.24197,4.82313
Lier,Lier,BE,51.13128,4.57041
Liege,Liege,BE,50.63373,5.56749
Leuven,Leuven,BE,50.87959,4.70093
Lessines,Lessines,BE,50.71104,3.83579
Lede,Lede,BE,50.96626,3.98594
Lebbeke,Lebbeke,BE,51.00464,4.13457
Lanaken,Lanaken,BE,50.89318,5.6468
La Louviere,La Louviere,BE,50.48657,4.18785
Kortrijk,Kortrijk,BE,50.82803,3.26487
Kortenberg,Kortenberg,BE,50.88982,4.54353
Kontich,Kontich,BE,51.13213,4.44706
Koksijde,Koksijde,BE,51.11642,2.63772
Koersel,Koersel,BE,51.05909,5.27121
Koekelberg,Koekelberg,BE,50.86117,4.33136
Knokke-Heist,Knokke-Heist,BE,51.35,3.26667
Kessel-Lo,Kessel-Lo,BE,50.88549,4.73717
Kasterlee,Kasterlee,BE,51.24118,4.96651
Kapellen,Kapellen,BE,51.31377,4.43539
Kalmthout,Kalmthout,BE,51.38442,4.47556
Jumet,Jumet,BE,50.4422,4.43745
Jette,Jette,BE,50.87309,4.33419
Jambes,Jambes,BE,50.45636,4.87166
Izegem,Izegem,BE,50.91396,3.21378
Ixelles,Ixelles,BE,50.83333,4.36667
Ieper,Ieper,BE,50.85114,2.88569
Huy,Huy,BE,50.51894,5.23284
Houthalen,Houthalen,BE,51.03427,5.37429
Hoogstraten,Hoogstraten,BE,51.40029,4.76034
Hoboken,Hoboken,BE,51.17611,4.34844
Heverlee,Heverlee,BE,50.86426,4.69597
Heusy,Heusy,BE,50.57457,5.86618
Heusden,Heusden,BE,51.03664,5.28013
Herzele,Herzele,BE,50.88681,3.89014
Herve,Herve,BE,50.64083,5.79353
Herstal,Herstal,BE,50.66415,5.62346
Herentals,Herentals,BE,51.17655,4.83248
Herent,Herent,BE,50.90861,4.67056
Helchteren,Helchteren,BE,51.05591,5.38244
Heist-op-den-Berg,Heist-op-den-Berg,BE,51.07537,4.72827
Hasselt,Hasselt,BE,50.93106,5.33781
Harelbeke,Harelbeke,BE,50.85343,3.30935
Hamme,Hamme,BE,51.09822,4.13705
Halle,Halle,BE,50.73385,4.23454
Haaltert,Haaltert,BE,50.90634,4.00093
Grivegnee,Grivegnee,BE,50.62148,5.61101
Grimbergen,Grimbergen,BE,50.93409,4.37213
Gilly,Gilly,BE,50.42449,4.4789
Geraardsbergen,Geraardsbergen,BE,50.77343,3.88223
Gentbrugge,Gentbrugge,BE,51.03692,3.76509
Gent,Gent,BE,51.05,3.71667
Genk,Genk,BE,50.965,5.50082
Gembloux,Gembloux,BE,50.56149,4.69889
Geel,Geel,BE,51.16557,4.98917
Ganshoren,Ganshoren,BE,50.87065,4.31531
Frameries,Frameries,BE,50.40578,3.89603
Forest,Forest,BE,50.81678,4.32775
Fleurus,Fleurus,BE,50.48351,4.55006
Fleron,Fleron,BE,50.61516,5.68062
Flemalle-Haute,Flemalle-Haute,BE,50.59994,5.44471
Evergem,Evergem,BE,51.11306,3.70976
Evere,Evere,BE,50.87441,4.39905
Eupen,Eupen,BE,50.6279,6.03647
Etterbeek,Etterbeek,BE,50.83272,4.38835
Ekeren,Ekeren,BE,51.28087,4.41813
Eeklo,Eeklo,BE,51.18703,3.55654
Edegem,Edegem,BE,51.15662,4.44504
Duffel,Duffel,BE,51.09554,4.50903
Dour,Dour,BE,50.39583,3.77792
Dilbeek,Dilbeek,BE,50.84799,4.25972
Diksmuide,Diksmuide,BE,51.03248,2.86384
Diest,Diest,BE,50.98923,5.05062
Diepenbeek,Diepenbeek,BE,50.90769,5.41875
Deurne,Deurne,BE,51.22134,4.46595
Destelbergen,Destelbergen,BE,51.05952,3.79899
Dendermonde,Dendermonde,BE,51.02869,4.10106
Denderleeuw,Denderleeuw,BE,50.88506,4.07601
Deinze,Deinze,BE,50.98175,3.53096
Courcelles,Courcelles,BE,50.46379,4.3747
Colfontaine,Colfontaine,BE,50.4141,3.85569
Chaudfontaine,Chaudfontaine,BE,50.5828,5.6341
Chatelineau,Chatelineau,BE,50.41499,4.52016
Chatelet,Chatelet,BE,50.40338,4.52826
Charleroi,Charleroi,BE,50.41136,4.44448
Brussels,Brussels,BE,50.85045,4.34878
Brugge,Brugge,BE,51.20892,3.22424
Brasschaat,Brasschaat,BE,51.2912,4.49182
Braine-le-Comte,Braine-le-Comte,BE,50.60979,4.14658
Braine-l'Alleud,Braine-l'Alleud,BE,50.68363,4.36784
Boussu,Boussu,BE,50.43417,3.7944
Bornem,Bornem,BE,51.09716,4.24364
Borgerhout,Borgerhout,BE,51.20957,4.43539
Boom,Boom,BE,51.09242,4.3717
Blauwput,Blauwput,BE,50.88587,4.72415
Blankenberge,Blankenberge,BE,51.31306,3.13227
Binche,Binche,BE,50.41155,4.16469
Bilzen,Bilzen,BE,50.87325,5.5184
Beveren,Beveren,BE,51.21187,4.25633
Bevere,Bevere,BE,50.8496,3.5873
Beringen,Beringen,BE,51.04954,5.22606
Berchem-Sainte-Agathe,Berchem-Sainte-Agathe,BE,50.86567,4.29557
Berchem,Berchem,BE,51.19021,4.43264
Beersel,Beersel,BE,50.76589,4.3002
Beerse,Beerse,BE,51.31927,4.85304
Balen,Balen,BE,51.16837,5.17027
Auderghem,Auderghem,BE,50.81667,4.43333
Ath,Ath,BE,50.62937,3.77801
Assebroek,Assebroek,BE,51.19367,3.2623
Asse,Asse,BE,50.91011,4.19836
Arlon,Arlon,BE,49.68333,5.81667
Antwerpen,Antwerpen,BE,51.22047,4.40026
Ans,Ans,BE,50.6623,5.52029
Anderlecht,Anderlecht,BE,50.83619,4.31454
Andenne,Andenne,BE,50.48941,5.09513
Aarschot,Aarschot,BE,50.98715,4.83695
Aalter,Aalter,BE,51.09017,3.44693
Aalst,Aalst,BE,50.93604,4.0355
Zorgo,Zorgo,BF,12.24922,-0.61527
Ziniare,Ziniare,BF,12.58236,-1.29753
Zinguedesse,Zinguedesse,BF,12.24661,-1.58402
Zabre,Zabre,BF,11.1825,-0.63222
Yalgo,Yalgo,BF,12.93333,-0.85
Yako,Yako,BF,12.9591,-2.26075
Tougan,Tougan,BF,13.07237,-3.06939
Toma,Toma,BF,12.75844,-2.89879
To,To,BF,11.44379,-2.22548
Titao,Titao,BF,13.76667,-2.06667
Tita,Tita,BF,11.92092,-2.51536
Tenkodogo,Tenkodogo,BF,11.78442,-0.37184
Solenzo,Solenzo,BF,12.17423,-4.08477
Sapouy,Sapouy,BF,11.55444,-1.77361
Saonre,Saonre,BF,12.2751,-1.57692
Sabou,Sabou,BF,12.06667,-2.23333
Saaba,Saaba,BF,12.37136,-1.41468
Reo,Reo,BF,12.31963,-2.47094
Pouytenga,Pouytenga,BF,12.25162,-0.42565
Po,Po,BF,11.16972,-1.145
Pissila,Pissila,BF,13.16417,-0.8225
Pa,Pa,BF,12.66667,-3.95
Ouahigouya,Ouahigouya,BF,13.5769,-2.41786
Ouagadougou,Ouagadougou,BF,12.36566,-1.53388
Orodara,Orodara,BF,10.98115,-4.91885
Nioko I,Nioko I,BF,12.39501,-1.43861
Nouna,Nouna,BF,12.72939,-3.86305
Niangoloko,Niangoloko,BF,10.28333,-4.91667
Natiaboani,Natiaboani,BF,11.69917,0.50611
Mogtedo,Mogtedo,BF,12.28444,-0.83722
Manga,Manga,BF,11.66496,-1.06977
Leo,Leo,BF,11.10033,-2.10654
Koupela,Koupela,BF,12.17864,-0.35103
Kouka,Kouka,BF,13.4345,-1.61361
Koudougou,Koudougou,BF,12.25188,-2.36694
Korsimoro,Korsimoro,BF,12.82506,-1.06737
Kongoussi,Kongoussi,BF,13.32583,-1.53472
Kombissiri,Kombissiri,BF,12.06884,-1.33644
Kokologo,Kokologo,BF,12.19392,-1.87687
Kindi,Kindi,BF,12.4386,-2.03279
Kaya,Kaya,BF,13.0883,-1.08368
Karankasso,Karankasso,BF,11.22191,-4.64423
Hounde,Hounde,BF,11.5,-3.51667
Gourcy,Gourcy,BF,13.20776,-2.35893
Gayeri,Gayeri,BF,12.64824,0.49314
Garango,Garango,BF,11.8,-0.55056
Gaoua,Gaoua,BF,10.33137,-3.18202
Gao,Gao,BF,11.64967,-2.17777
Fara Department,Fara Department,BF,11.52941,-2.76797
Fada N'gourma,Fada N'gourma,BF,12.06157,0.35843
Dori,Dori,BF,14.03326,-0.03333
Djibo,Djibo,BF,14.09864,-1.62665
Diebougou,Diebougou,BF,10.96209,-3.24967
Diapaga,Diapaga,BF,12.0729,1.78835
Dedougou,Dedougou,BF,12.4636,-3.46075
Dano,Dano,BF,11.1464,-3.05784
Gomboussougou,Gomboussougou,BF,11.42611,-0.77278
Bousse,Bousse,BF,12.66121,-1.89515
Bourzanga,Bourzanga,BF,13.67806,-1.54611
Boulsa,Boulsa,BF,12.66664,-0.57469
Boromo,Boromo,BF,11.74542,-2.93006
Bogande,Bogande,BF,12.97711,-0.14661
Bobo-Dioulasso,Bobo-Dioulasso,BF,11.18064,-4.29489
Bittou,Bittou,BF,11.25806,-0.30611
Beguedo,Beguedo,BF,11.78083,-0.73389
Batie,Batie,BF,9.88333,-2.91667
Barogo,Barogo,BF,12.55,-0.96667
Banfora,Banfora,BF,10.64064,-4.75285
Bama,Bama,BF,12.0357,-4.3987
Aribinda,Aribinda,BF,14.22963,-0.86537
Mani,Mani,BF,13.25833,-0.21306
Namponkore,Namponkore,BF,11.73748,1.77718
Cinkanse,Cinkanse,BF,11.11857,0.00993
Kompienga,Kompienga,BF,11.08169,0.72365
Yambol,Yambol,BG,42.48243,26.50006
Vratsa,Vratsa,BG,43.21052,23.56312
Vidin,Vidin,BG,43.99159,22.88236
Velingrad,Velingrad,BG,42.02754,23.99155
Veliko Turnovo,Veliko Turnovo,BG,43.08124,25.62904
Varna,Varna,BG,43.21912,27.91024
Targovishte,Targovishte,BG,43.2512,26.57215
Troyan,Troyan,BG,42.89427,24.71589
Dobrich,Dobrich,BG,43.56491,27.83138
Svishtov,Svishtov,BG,43.61875,25.35033
Svilengrad,Svilengrad,BG,41.76836,26.19775
Stara Zagora,Stara Zagora,BG,42.43205,25.64262
Dupnitsa,Dupnitsa,BG,42.26478,23.11723
Sofia,Sofia,BG,42.69751,23.32415
Smolyan,Smolyan,BG,41.57439,24.71204
Sliven,Sliven,BG,42.68607,26.32558
Silistra,Silistra,BG,44.1171,27.26056
Shumen,Shumen,BG,43.27064,26.92286
Sevlievo,Sevlievo,BG,43.02295,25.10364
Sandanski,Sandanski,BG,41.56667,23.28333
Samokov,Samokov,BG,42.33855,23.55805
Ruse,Ruse,BG,43.84872,25.9534
Razgrad,Razgrad,BG,43.53331,26.51849
Rakovski,Rakovski,BG,42.28819,24.96779
Parvomay,Parvomay,BG,42.1,25.21667
Popovo,Popovo,BG,43.35,26.23333
Plovdiv,Plovdiv,BG,42.15387,24.75001
Pleven,Pleven,BG,43.41791,24.61666
Petrich,Petrich,BG,41.39846,23.20702
Peshtera,Peshtera,BG,42.03372,24.29995
Pernik,Pernik,BG,42.59671,23.03318
Pazardzhik,Pazardzhik,BG,42.19934,24.33318
Panagyurishte,Panagyurishte,BG,42.49518,24.19021
Nova Zagora,Nova Zagora,BG,42.48333,26.01667
Montana,Montana,BG,43.41285,23.22174
Lovech,Lovech,BG,43.13227,24.71763
Lom,Lom,BG,43.8317,23.23793
Kyustendil,Kyustendil,BG,42.28314,22.69224
Kardzhali,Kardzhali,BG,41.64502,25.36578
Haskovo,Haskovo,BG,41.93415,25.55557
Harmanli,Harmanli,BG,41.93233,25.90172
Kazanlak,Kazanlak,BG,42.61667,25.4
Karnobat,Karnobat,BG,42.65,26.98333
Karlovo,Karlovo,BG,42.63333,24.8
Gotse Delchev,Gotse Delchev,BG,41.56667,23.73333
Gorna Oryahovitsa,Gorna Oryahovitsa,BG,43.12778,25.70167
Gabrovo,Gabrovo,BG,42.87419,25.31823
Dimitrovgrad,Dimitrovgrad,BG,42.05,25.6
Chirpan,Chirpan,BG,42.2,25.33333
Burgas,Burgas,BG,42.50651,27.46886
Botevgrad,Botevgrad,BG,42.90799,23.79274
Blagoevgrad,Blagoevgrad,BG,42.01457,23.09804
Berkovitsa,Berkovitsa,BG,43.23741,23.12509
Aytos,Aytos,BG,42.70322,27.25464
Asparuhovo,Asparuhovo,BG,43.18067,27.88823
Asenovgrad,Asenovgrad,BG,42.01667,24.86667
Sitrah,Sitrah,BH,26.15472,50.62056
Madinat `Isa,Madinat `Isa,BH,26.17361,50.54778
Jidd Hafs,Jidd Hafs,BH,26.21861,50.54778
Madinat Hamad,Madinat Hamad,BH,26.11528,50.50694
Dar Kulayb,Dar Kulayb,BH,26.06861,50.50389
Al Muharraq,Al Muharraq,BH,26.25722,50.61194
Manama,Manama,BH,26.22787,50.58565
Ar Rifa',Ar Rifa',BH,26.13,50.555
Vyanda,Vyanda,BI,-4.1024,29.606
Rumonge,Rumonge,BI,-3.9736,29.4386
Gatumba,Gatumba,BI,-3.33333,29.25
Bujumbura,Bujumbura,BI,-3.38193,29.36142
Gitega,Gitega,BI,-3.42708,29.92463
Zanandore,Zanandore,BI,-3.2548,30.11404
Cendajuru,Cendajuru,BI,-3.289,30.6011
Karuzi,Karuzi,BI,-3.10139,30.16278
Bubanza,Bubanza,BI,-3.0804,29.391
Mpanda,Mpanda,BI,-3.1703,29.4026
Cibitoke,Cibitoke,BI,-2.8869,29.1248
Ngozi,Ngozi,BI,-2.9075,29.8306
Kayanza,Kayanza,BI,-2.9221,29.6293
Kirundo,Kirundo,BI,-2.5845,30.0959
Zinvie,Zinvie,BJ,6.61738,2.35776
Ze,Ze,BJ,6.78333,2.3
Toviklin,Toviklin,BJ,6.88935,1.83722
Toukountouna,Toukountouna,BJ,10.50279,1.37437
Tobre,Tobre,BJ,10.19499,2.12999
Tchaourou,Tchaourou,BJ,8.88649,2.59753
Tanguieta,Tanguieta,BJ,10.62118,1.26651
Sinende,Sinende,BJ,10.34963,2.37906
Semi,Semi,BJ,6.36667,2.61667
Segbana,Segbana,BJ,10.92821,3.69429
Se,Se,BJ,6.51115,1.82831
Save,Save,BJ,8.03424,2.4866
Savalou,Savalou,BJ,7.92807,1.97558
Sakete,Sakete,BJ,6.73618,2.65866
Porto-Novo,Porto-Novo,BJ,6.49646,2.60359
Pobe,Pobe,BJ,6.98008,2.6649
Perere,Perere,BJ,9.79721,2.98403
Pehonko,Pehonko,BJ,10.22746,2.00192
Parakou,Parakou,BJ,9.33716,2.63031
Ouinhi,Ouinhi,BJ,7.08411,2.48343
Ouidah,Ouidah,BJ,6.36307,2.08506
Ouesse,Ouesse,BJ,8.48639,2.42872
Nikki,Nikki,BJ,9.94009,3.21075
Ndali,Ndali,BJ,9.8636,2.72094
Natitingou,Natitingou,BJ,10.30416,1.37962
Misserete,Misserete,BJ,6.55872,2.59063
Materi,Materi,BJ,10.69623,1.06307
Malanville,Malanville,BJ,11.86819,3.38327
Lokossa,Lokossa,BJ,6.63869,1.71674
Kouande,Kouande,BJ,6.4,2.06667
Ketou,Ketou,BJ,7.36332,2.59978
Kerou,Kerou,BJ,10.82578,2.10479
Kandi,Kandi,BJ,11.13417,2.93861
Kalale,Kalale,BJ,10.29275,3.38367
Godome,Godome,BJ,6.38948,2.34581
Glazoue,Glazoue,BJ,7.97252,2.22176
Ganvie,Ganvie,BJ,6.46441,2.39288
Ekpe,Ekpe,BJ,6.39209,2.53725
Dogbo,Dogbo,BJ,6.79911,1.78073
Djougou,Djougou,BJ,9.70853,1.66598
Djidja,Djidja,BJ,7.34436,1.93447
Djakotome,Djakotome,BJ,6.8991,1.71618
Dassa-Zoume,Dassa-Zoume,BJ,7.75,2.18333
Cove,Cove,BJ,7.22097,2.34017
Cotonou,Cotonou,BJ,6.36536,2.41833
Kopargo,Kopargo,BJ,9.84108,1.54231
Come,Come,BJ,6.40764,1.88198
Boukoumbe,Boukoumbe,BJ,10.17711,1.10621
Bohicon,Bohicon,BJ,7.17826,2.0667
Bembereke,Bembereke,BJ,10.22827,2.66335
Bassila,Bassila,BJ,9.00814,1.6654
Bante,Bante,BJ,8.41221,1.88969
Banikoara,Banikoara,BJ,11.29845,2.43856
Banigbe,Banigbe,BJ,6.64756,2.70695
Avrankou,Avrankou,BJ,6.55591,2.65123
Athieme,Athieme,BJ,6.5808,1.6696
Aplahoue,Aplahoue,BJ,6.93333,1.68333
Allada,Allada,BJ,6.66547,2.15138
Adjarra,Adjarra,BJ,6.53445,2.66833
Adjaouere,Adjaouere,BJ,7.00228,2.60591
Abomey-Calavi,Abomey-Calavi,BJ,6.44852,2.35566
Abomey,Abomey,BJ,7.18286,1.99119
Ouake,Ouake,BJ,9.66167,1.38472
Cobly,Cobly,BJ,10.49222,0.99972
Klouekanme,Klouekanme,BJ,6.98028,1.84222
Kpozoun,Kpozoun,BJ,7.22868,2.21317
Gustavia,Gustavia,BL,17.89618,-62.84978
Hamilton,Hamilton,BM,32.2949,-64.78303
Tutong,Tutong,BN,4.80278,114.64917
Seria,Seria,BN,4.60637,114.32476
Kuala Belait,Kuala Belait,BN,4.58361,114.2312
Liang,Liang,BN,4.67747,114.49587
Serasa,Serasa,BN,5.01761,115.05798
Sengkurong,Sengkurong,BN,4.88333,114.83333
Mentiri,Mentiri,BN,4.97058,115.02078
Bandar Seri Begawan,Bandar Seri Begawan,BN,4.89035,114.94006
Yacuiba,Yacuiba,BO,-22.01643,-63.67753
Warnes,Warnes,BO,-17.5163,-63.16778
Vinto,Vinto,BO,-17.39141,-66.31681
Villazon,Villazon,BO,-22.08659,-65.59422
Villa Yapacani,Villa Yapacani,BO,-17.4,-63.83333
Villamontes,Villamontes,BO,-21.26235,-63.46903
Viacha,Viacha,BO,-16.65,-68.3
Tupiza,Tupiza,BO,-21.44345,-65.71875
Trinidad,Trinidad,BO,-14.83223,-64.90335
Tiquipaya,Tiquipaya,BO,-17.33801,-66.21579
Tarija,Tarija,BO,-21.53549,-64.72956
Sucre,Sucre,BO,-19.03332,-65.26274
Sipe Sipe,Sipe Sipe,BO,-17.45419,-66.35737
El Torno,El Torno,BO,-18.00014,-63.38712
Santa Cruz de la Sierra,Santa Cruz de la Sierra,BO,-17.78629,-63.18117
San Ignacio de Velasco,San Ignacio de Velasco,BO,-16.37767,-60.96472
Sacaba,Sacaba,BO,-17.39799,-66.03825
Riberalta,Riberalta,BO,-11.01026,-66.05257
Quillacollo,Quillacollo,BO,-17.39228,-66.27838
Punata,Punata,BO,-17.54234,-65.83472
Potosi,Potosi,BO,-19.58361,-65.75306
Oruro,Oruro,BO,-17.97153,-67.0932
Montero,Montero,BO,-17.33874,-63.25093
Mizque,Mizque,BO,-17.94101,-65.34016
Llallagua,Llallagua,BO,-18.42494,-66.57778
La Paz,La Paz,BO,-16.5,-68.15
Laja,Laja,BO,-16.53333,-68.38333
Huanuni,Huanuni,BO,-18.289,-66.83583
Guayaramerin,Guayaramerin,BO,-10.8258,-65.3581
Cotoca,Cotoca,BO,-17.81667,-63.05
Colcapirhua,Colcapirhua,BO,-17.3857,-66.23814
Cochabamba,Cochabamba,BO,-17.38195,-66.15995
Cobija,Cobija,BO,-11.02671,-68.76918
Caranavi,Caranavi,BO,-15.83403,-67.56586
Camiri,Camiri,BO,-20.04063,-63.52396
Bermejo,Bermejo,BO,-22.73206,-64.33724
Achocalla,Achocalla,BO,-16.57386,-68.15112
Ascencion de Guarayos,Ascencion de Guarayos,BO,-15.89299,-63.18855
San Borja,San Borja,BO,-14.85195,-66.74954
Kralendijk,Kralendijk,BQ,12.15,-68.26667
Vitorino Freire,Vitorino Freire,BR,-4.28805,-45.24611
Vitoria do Mearim,Vitoria do Mearim,BR,-3.46222,-44.87056
Vitoria de Santo Antao,Vitoria de Santo Antao,BR,-8.11806,-35.29139
Viseu,Viseu,BR,-1.19667,-46.14
Conde,Conde,BR,-7.25972,-34.9075
Vigia,Vigia,BR,-0.85833,-48.14167
Vicosa do Ceara,Vicosa do Ceara,BR,-3.56222,-41.09222
Vicosa,Vicosa,BR,-9.37139,-36.24083
Vicencia,Vicencia,BR,-7.65694,-35.32667
Viana,Viana,BR,-3.22028,-45.00361
Vertentes,Vertentes,BR,-7.90278,-35.98833
Venturosa,Venturosa,BR,-8.57472,-36.87417
Varzea Alegre,Varzea Alegre,BR,-5.35,-40.38333
Varzea Alegre,Varzea Alegre,BR,-6.78889,-39.29583
Varjota,Varjota,BR,-4.19444,-40.47667
Vargem Grande,Vargem Grande,BR,-3.54306,-43.91583
Valenca do Piaui,Valenca do Piaui,BR,-6.4075,-41.74556
Urucurituba,Urucurituba,BR,-3.12873,-58.15501
Urucui,Urucui,BR,-7.22944,-44.55611
Urucara,Urucara,BR,-2.53639,-57.76
Uruburetama,Uruburetama,BR,-3.625,-39.50833
Urbano Santos,Urbano Santos,BR,-3.20778,-43.40361
Uniao dos Palmares,Uniao dos Palmares,BR,-9.16278,-36.03194
Uniao,Uniao,BR,-4.58583,-42.86417
Umirim,Umirim,BR,-3.67722,-39.35028
Ubajara,Ubajara,BR,-3.85444,-40.92111
Uaua,Uaua,BR,-9.84139,-39.48167
Tutoia,Tutoia,BR,-2.76194,-42.27444
Turiacu,Turiacu,BR,-1.66333,-45.37167
Turaru,Turaru,BR,-3.6,-39.43333
Tupanatinga,Tupanatinga,BR,-8.75333,-37.33972
Tuntum,Tuntum,BR,-5.25806,-44.64889
Tucurui,Tucurui,BR,-3.76585,-49.67923
Tucuma,Tucuma,BR,-0.15491,-50.0615
Trindade,Trindade,BR,-7.76194,-40.26778
Trairi,Trairi,BR,-3.27778,-39.26889
Traipu,Traipu,BR,-9.97056,-37.00333
Tracuateua,Tracuateua,BR,-1.07611,-46.90306
Touros,Touros,BR,-5.19889,-35.46083
Toritama,Toritama,BR,-8.00667,-36.05667
Tome-Acu,Tome-Acu,BR,-2.41889,-48.15222
Tocantinopolis,Tocantinopolis,BR,-6.32944,-47.41639
Timon,Timon,BR,-5.09417,-42.83667
Timbiras,Timbiras,BR,-4.25528,-43.94056
Timbauba,Timbauba,BR,-7.50528,-35.31833
Tibau do Sul,Tibau do Sul,BR,-6.18667,-35.09194
Tiangua,Tiangua,BR,-3.73222,-40.99167
Terra Santa,Terra Santa,BR,-2.10417,-56.48694
Teresina,Teresina,BR,-5.08917,-42.80194
Tejucuoca,Tejucuoca,BR,-3.98889,-39.58056
Taua,Taua,BR,-6.00306,-40.29278
Sao Joao dos Inhamuns,Sao Joao dos Inhamuns,BR,-6,-40.28333
Taquaritinga do Norte,Taquaritinga do Norte,BR,-7.90306,-36.04417
Taquarana,Taquarana,BR,-9.645,-36.49722
Tamboril,Tamboril,BR,-4.83222,-40.32056
Itambe,Itambe,BR,-7.41028,-35.11278
Tamandare,Tamandare,BR,-8.75632,-35.09995
Tacaratu,Tacaratu,BR,-9.10528,-38.14917
Tabuleiro do Norte,Tabuleiro do Norte,BR,-5.24667,-38.13056
Tabira,Tabira,BR,-7.59083,-37.53944
Surubim,Surubim,BR,-7.83306,-35.75472
Sume,Sume,BR,-7.67167,-36.88
Sousa,Sousa,BR,-6.75917,-38.22806
Soure,Soure,BR,-0.71667,-48.52333
Solonopole,Solonopole,BR,-5.73333,-39.0075
Solanea,Solanea,BR,-6.75459,-35.66449
Sobral,Sobral,BR,-3.68611,-40.34972
Sobradinho,Sobradinho,BR,-9.47184,-40.80155
Sirinhaem,Sirinhaem,BR,-8.59083,-35.11611
Sertania,Sertania,BR,-8.07361,-37.26444
Serrita,Serrita,BR,-7.93333,-39.29583
Serra Talhada,Serra Talhada,BR,-7.99194,-38.29833
Senador Pompeu,Senador Pompeu,BR,-5.58806,-39.37167
Senador Jose Porfirio,Senador Jose Porfirio,BR,-2.59083,-51.95417
Satuba,Satuba,BR,-9.56333,-35.82444
Sape,Sape,BR,-7.09639,-35.23278
Sao Vicente Ferrer,Sao Vicente Ferrer,BR,-7.59111,-35.49139
Sao Vicente Ferrer,Sao Vicente Ferrer,BR,-2.89417,-44.88028
Sao Sebastiao da Boa Vista,Sao Sebastiao da Boa Vista,BR,-1.71464,-49.53152
Sao Sebastiao,Sao Sebastiao,BR,-9.93361,-36.55417
Sao Raimundo Nonato,Sao Raimundo Nonato,BR,-9.01528,-42.69944
Sao Raimundo das Mangabeiras,Sao Raimundo das Mangabeiras,BR,-7.02194,-45.48111
Sao Paulo do Potengi,Sao Paulo do Potengi,BR,-5.895,-35.76278
Sao Miguel do Tapuio,Sao Miguel do Tapuio,BR,-5.50361,-41.32333
Sao Miguel dos Campos,Sao Miguel dos Campos,BR,-9.78111,-36.09361
Sao Miguel do Guama,Sao Miguel do Guama,BR,-1.62667,-47.48333
Sao Miguel,Sao Miguel,BR,-6.21194,-38.49694
Sao Mateus do Maranhao,Sao Mateus do Maranhao,BR,-4.04167,-44.475
Sao Luis do Quitunde,Sao Luis do Quitunde,BR,-9.31833,-35.56111
Sao Luis,Sao Luis,BR,-2.52972,-44.30278
Sao Lourenco da Mata,Sao Lourenco da Mata,BR,-8.00222,-35.01833
Sao Jose do Egito,Sao Jose do Egito,BR,-7.47889,-37.27444
Sao Jose do Belmonte,Sao Jose do Belmonte,BR,-7.86139,-38.75972
Sao Jose de Ribamar,Sao Jose de Ribamar,BR,-2.55572,-44.05992
Sao Jose de Piranhas,Sao Jose de Piranhas,BR,-7.12056,-38.50194
Sao Jose de Mipibu,Sao Jose de Mipibu,BR,-6.07472,-35.23778
Sao Jose da Tapera,Sao Jose da Tapera,BR,-9.55833,-37.38111
Sao Jose da Laje,Sao Jose da Laje,BR,-9.00972,-36.05833
Sao Jose da Coroa Grande,Sao Jose da Coroa Grande,BR,-8.89778,-35.14778
Sao Joaquim do Monte,Sao Joaquim do Monte,BR,-8.4325,-35.80444
Sao Joao dos Patos,Sao Joao dos Patos,BR,-6.495,-43.70222
Sao Joao do Piaui,Sao Joao do Piaui,BR,-8.35806,-42.24667
Sao Joao de Pirabas,Sao Joao de Pirabas,BR,-0.77472,-47.17722
Sao Joao Batista,Sao Joao Batista,BR,-2.95528,-44.80694
Sao Joao,Sao Joao,BR,-8.87556,-36.36667
Sao Goncalo do Amarante,Sao Goncalo do Amarante,BR,-5.79333,-35.32944
Sao Goncalo do Amarante,Sao Goncalo do Amarante,BR,-3.60722,-38.96833
Sao Geraldo do Araguaia,Sao Geraldo do Araguaia,BR,-6.40056,-48.555
Sao Felix do Xingu,Sao Felix do Xingu,BR,-6.64472,-51.995
Sao Domingos do Maranhao,Sao Domingos do Maranhao,BR,-5.57583,-44.38528
Sao Domingos do Capim,Sao Domingos do Capim,BR,-1.67417,-47.77111
Sao Caitano,Sao Caitano,BR,-8.32583,-36.14278
Sao Caetano de Odivelas,Sao Caetano de Odivelas,BR,-0.75,-48.02
Sao Bernardo,Sao Bernardo,BR,-3.36139,-42.41778
Sao Bento do Una,Sao Bento do Una,BR,-8.52278,-36.44444
Sao Bento,Sao Bento,BR,-6.28333,-37.75
Sao Bento,Sao Bento,BR,-2.69583,-44.82139
Sao Benedito do Rio Preto,Sao Benedito do Rio Preto,BR,-3.33361,-43.52833
Sao Benedito,Sao Benedito,BR,-4.04861,-40.865
Santo Antonio do Taua,Santo Antonio do Taua,BR,-1.15194,-48.12944
Santo Antonio,Santo Antonio,BR,-6.31056,-35.47889
Santa Rita,Santa Rita,BR,-7.11389,-34.97806
Santarem,Santarem,BR,-2.44306,-54.70833
Santa Quiteria do Maranhao,Santa Quiteria do Maranhao,BR,-3.49586,-42.56198
Santa Quiteria,Santa Quiteria,BR,-4.33194,-40.15667
Santana do Ipanema,Santana do Ipanema,BR,-9.37833,-37.24528
Santana do Cariri,Santana do Cariri,BR,-7.18833,-39.73694
Santana do Acarau,Santana do Acarau,BR,-3.46056,-40.21222
Santa Rita,Santa Rita,BR,-3.13901,-44.32519
Santa Maria do Para,Santa Maria do Para,BR,-1.35028,-47.57556
Santa Maria das Barreiras,Santa Maria das Barreiras,BR,-8.87167,-49.71278
Santa Maria da Boa Vista,Santa Maria da Boa Vista,BR,-8.80778,-39.82556
Santa Luzia,Santa Luzia,BR,-7.64265,-47.21738
Santa Isabel do Para,Santa Isabel do Para,BR,-1.29861,-48.16056
Santa Ines,Santa Ines,BR,-3.66667,-45.38
Santa Helena,Santa Helena,BR,-2.23111,-45.3
Santa Cruz do Capibaribe,Santa Cruz do Capibaribe,BR,-7.9575,-36.20472
Santa Cruz,Santa Cruz,BR,-6.22944,-36.02278
Sanharo,Sanharo,BR,-8.36056,-36.56556
Salvaterra,Salvaterra,BR,-0.75333,-48.51667
Salitre,Salitre,BR,-7.28472,-40.45722
Salinopolis,Salinopolis,BR,-0.62099,-47.35422
Salgueiro,Salgueiro,BR,-8.07417,-39.11917
Russas,Russas,BR,-4.94028,-37.97583
Rosario,Rosario,BR,-2.94047,-44.24898
Rio Tinto,Rio Tinto,BR,-6.80306,-35.08056
Rio Largo,Rio Largo,BR,-9.47833,-35.85333
Rio Formoso,Rio Formoso,BR,-8.66877,-35.16277
Ribeirao,Ribeirao,BR,-8.51444,-35.37778
Riacho das Almas,Riacho das Almas,BR,-8.13389,-35.85639
Riachao,Riachao,BR,-7.36194,-46.61722
Reriutaba,Reriutaba,BR,-4.14167,-40.58222
Remigio,Remigio,BR,-6.96596,-35.7951
Remanso,Remanso,BR,-9.62167,-42.08139
Regeneracao,Regeneracao,BR,-6.23122,-42.68691
Redencao,Redencao,BR,-4.22583,-38.73056
Recife,Recife,BR,-8.05389,-34.88111
Quixere,Quixere,BR,-5.07417,-37.98861
Quixeramobim,Quixeramobim,BR,-5.19917,-39.29278
Quixelo,Quixelo,BR,-6.25444,-39.20194
Quixada,Quixada,BR,-4.97139,-39.01528
Quipapa,Quipapa,BR,-8.82778,-36.01167
Queimadas,Queimadas,BR,-7.35833,-35.89833
Princesa Isabel,Princesa Isabel,BR,-7.73667,-37.99333
Presidente Dutra,Presidente Dutra,BR,-5.29,-44.49
Prainha,Prainha,BR,-1.8,-53.48
Santana,Santana,BR,-0.03816,-51.17476
Porto Grande,Porto Grande,BR,0.71333,-51.41333
Porto Franco,Porto Franco,BR,-6.33833,-47.39917
Porto de Moz,Porto de Moz,BR,-1.74833,-52.23833
Porto da Folha,Porto da Folha,BR,-9.91722,-37.27833
Porto Calvo,Porto Calvo,BR,-9.045,-35.39833
Portel,Portel,BR,-1.93556,-50.82111
Porteiras,Porteiras,BR,-7.53472,-39.11833
Ponta de Pedras,Ponta de Pedras,BR,-1.39028,-48.87111
Pombos,Pombos,BR,-8.14139,-35.39583
Pombal,Pombal,BR,-6.77028,-37.80167
Poco Redondo,Poco Redondo,BR,-9.805,-37.68444
Pocinhos,Pocinhos,BR,-7.07667,-36.06111
Pocao de Pedras,Pocao de Pedras,BR,-4.75181,-44.94385
Pitimbu,Pitimbu,BR,-7.47056,-34.80861
Piripiri,Piripiri,BR,-4.27333,-41.77694
Pirapemas,Pirapemas,BR,-3.72667,-44.22333
Piranhas,Piranhas,BR,-9.62361,-37.75667
Piracuruca,Piracuruca,BR,-3.92806,-41.70917
Piquet Carneiro,Piquet Carneiro,BR,-5.80361,-39.41778
Pio XII,Pio XII,BR,-3.8325,-45.1525
Pio IX,Pio IX,BR,-6.83535,-40.61297
Pinheiro,Pinheiro,BR,-2.52139,-45.0825
Pindoretama,Pindoretama,BR,-4.02694,-38.305
Pindare-Mirim,Pindare-Mirim,BR,-3.60833,-45.34333
Pilar,Pilar,BR,-9.59722,-35.95667
Picui,Picui,BR,-6.51056,-36.34694
Picos,Picos,BR,-7.07694,-41.46694
Pianco,Pianco,BR,-7.19806,-37.92917
Petrolina,Petrolina,BR,-9.39861,-40.50083
Pesqueira,Pesqueira,BR,-8.35778,-36.69639
Peritoro,Peritoro,BR,-4.38333,-44.33333
Pereiro,Pereiro,BR,-6.04167,-38.45972
Pentecoste,Pentecoste,BR,-3.79278,-39.27028
Penalva,Penalva,BR,-3.29417,-45.17361
Pedro II,Pedro II,BR,-4.42472,-41.45861
Pedreiras,Pedreiras,BR,-4.56889,-44.59194
Pedras de Fogo,Pedras de Fogo,BR,-7.40194,-35.11639
Pedra Branca,Pedra Branca,BR,-5.45417,-39.71722
Pedra,Pedra,BR,-8.49694,-36.94083
Paulo Ramos,Paulo Ramos,BR,-4.44771,-45.24053
Paulo Afonso,Paulo Afonso,BR,-9.40611,-38.21472
Paulistana,Paulistana,BR,-8.14361,-41.14972
Paulista,Paulista,BR,-7.94083,-34.87306
Paulino Neves,Paulino Neves,BR,-2.71917,-42.53306
Pau dos Ferros,Pau dos Ferros,BR,-6.10917,-38.20444
Paudalho,Paudalho,BR,-7.89667,-35.17972
Patos,Patos,BR,-7.02444,-37.28
Pastos Bons,Pastos Bons,BR,-6.60167,-44.07667
Passira,Passira,BR,-7.995,-35.58056
Passagem Franca,Passagem Franca,BR,-6.17972,-43.78361
Parnarama,Parnarama,BR,-5.68167,-43.09333
Parnamirim,Parnamirim,BR,-8.09056,-39.57833
Parnamirim,Parnamirim,BR,-5.91556,-35.26278
Parnaiba,Parnaiba,BR,-2.90472,-41.77667
Parintins,Parintins,BR,-2.62833,-56.73583
Parelhas,Parelhas,BR,-6.68778,-36.6575
Estreito,Estreito,BR,-6.55573,-47.44149
Parambu,Parambu,BR,-6.21111,-40.69444
Paraipaba,Paraipaba,BR,-3.43944,-39.14833
Paraibano,Paraibano,BR,-6.43306,-43.98361
Paragominas,Paragominas,BR,-2.99565,-47.35488
Paracuru,Paracuru,BR,-3.41,-39.03056
Pao de Acucar,Pao de Acucar,BR,-9.74833,-37.43667
Panelas,Panelas,BR,-8.66361,-36.00583
Palmares,Palmares,BR,-8.68333,-35.59167
Pacatuba,Pacatuba,BR,-3.98417,-38.62028
Pacajus,Pacajus,BR,-4.1725,-38.46056
Ouricuri,Ouricuri,BR,-7.8825,-40.08167
Ourem,Ourem,BR,-1.55194,-47.11444
Oros,Oros,BR,-6.24444,-38.91361
Orobo,Orobo,BR,-7.745,-35.60222
Oriximina,Oriximina,BR,-1.76556,-55.86611
Olinda,Olinda,BR,-8.00889,-34.85528
Olho d'Agua das Flores,Olho d'Agua das Flores,BR,-9.53611,-37.29389
Oiapoque,Oiapoque,BR,3.84306,-51.835
Oeiras do Para,Oeiras do Para,BR,-2.00306,-49.85444
Oeiras,Oeiras,BR,-7.02528,-42.13111
Ocara,Ocara,BR,-4.49083,-38.59667
Obidos,Obidos,BR,-1.9175,-55.51806
Novo Oriente,Novo Oriente,BR,-5.53444,-40.77417
Nova Russas,Nova Russas,BR,-4.70667,-40.56306
Nova Olinda do Norte,Nova Olinda do Norte,BR,-3.89174,-59.09542
Nova Olinda,Nova Olinda,BR,-7.09167,-39.68056
Nova Cruz,Nova Cruz,BR,-6.47806,-35.43389
Nisia Floresta,Nisia Floresta,BR,-6.09111,-35.20861
Nhamunda,Nhamunda,BR,-2.18611,-56.71306
Nazare da Mata,Nazare da Mata,BR,-7.74167,-35.22778
Natal,Natal,BR,-5.795,-35.20944
Murici,Murici,BR,-9.30667,-35.94333
Muana,Muana,BR,-1.52833,-49.21667
Morros,Morros,BR,-2.86444,-44.03944
Morrinhos,Morrinhos,BR,-3.22944,-40.125
Moreno,Moreno,BR,-8.11861,-35.09222
Morada Nova,Morada Nova,BR,-5.10667,-38.3725
Monteiro,Monteiro,BR,-7.88944,-37.12
Monte Alegre,Monte Alegre,BR,-6.06778,-35.33222
Monte Alegre,Monte Alegre,BR,-2.00082,-54.08102
Monsenhor Tabosa,Monsenhor Tabosa,BR,-4.78944,-40.06333
Moncao,Moncao,BR,-3.49167,-45.25111
Mombaca,Mombaca,BR,-5.74306,-39.6275
Moju,Moju,BR,-1.88389,-48.76889
Mossoro,Mossoro,BR,-5.1875,-37.34417
Mocajuba,Mocajuba,BR,-2.58417,-49.50722
Missao Velha,Missao Velha,BR,-7.24972,-39.14306
Miranda do Norte,Miranda do Norte,BR,-3.56516,-44.58018
Mirador,Mirador,BR,-6.37083,-44.36306
Miracema do Tocantins,Miracema do Tocantins,BR,-9.56722,-48.39167
Milagres,Milagres,BR,-7.31333,-38.94556
Miguel Alves,Miguel Alves,BR,-4.16556,-42.89528
Messias,Messias,BR,-9.38333,-35.84167
Meruoca,Meruoca,BR,-3.54167,-40.455
Melgaco,Melgaco,BR,-1.80444,-50.71222
Mazagao,Mazagao,BR,-0.115,-51.28944
Mauriti,Mauriti,BR,-7.38917,-38.77444
Maues,Maues,BR,-3.38361,-57.71861
Matriz de Camaragibe,Matriz de Camaragibe,BR,-9.15167,-35.53333
Matoes,Matoes,BR,-5.51889,-43.19889
Matinha,Matinha,BR,-3.10056,-45.03361
Mata Grande,Mata Grande,BR,-9.1175,-37.73222
Massape,Massape,BR,-3.52278,-40.34278
Mari,Mari,BR,-7.06,-35.31944
Marechal Deodoro,Marechal Deodoro,BR,-9.71028,-35.895
Marco,Marco,BR,-3.12389,-40.14667
Marapanim,Marapanim,BR,-0.7175,-47.69972
Maranguape,Maranguape,BR,-3.89083,-38.68556
Maragogi,Maragogi,BR,-9.01222,-35.2225
Maracanau,Maracanau,BR,-3.87667,-38.62556
Maracana,Maracana,BR,-0.77071,-47.45176
Maracacume,Maracacume,BR,-2.04278,-45.95917
Maraba,Maraba,BR,-5.38146,-49.13232
Manari,Manari,BR,-8.96389,-37.62833
Mamanguape,Mamanguape,BR,-6.83861,-35.12611
Major Isidoro,Major Isidoro,BR,-9.53222,-36.985
Madalena,Madalena,BR,-4.85722,-39.57667
Maceio,Maceio,BR,-9.66583,-35.73528
Macau,Macau,BR,-5.115,-36.63444
Macaparana,Macaparana,BR,-7.55472,-35.45306
Macapa,Macapa,BR,0.03889,-51.06639
Macaiba,Macaiba,BR,-5.85833,-35.35389
Luzilandia,Luzilandia,BR,-3.45778,-42.37028
Luis Correia,Luis Correia,BR,-2.87917,-41.66694
Limoeiro do Norte,Limoeiro do Norte,BR,-5.14556,-38.09806
Limoeiro do Ajuru,Limoeiro do Ajuru,BR,-1.89528,-49.38056
Limoeiro de Anadia,Limoeiro de Anadia,BR,-9.74056,-36.50278
Limoeiro,Limoeiro,BR,-7.87472,-35.45028
Lavras da Mangabeira,Lavras da Mangabeira,BR,-6.75333,-38.96444
Lajedo,Lajedo,BR,-8.66361,-36.32
Lago da Pedra,Lago da Pedra,BR,-4.56033,-45.13155
Lagoa Seca,Lagoa Seca,BR,-7.17083,-35.85361
Lagoa Nova,Lagoa Nova,BR,-6.09401,-36.47219
Lagoa Grande,Lagoa Grande,BR,-8.99694,-40.27194
Lagoa do Itaenga,Lagoa do Itaenga,BR,-7.93611,-35.29028
Lagoa do Carro,Lagoa do Carro,BR,-7.84472,-35.31972
Lagoa da Canoa,Lagoa da Canoa,BR,-9.82972,-36.73778
Juruti,Juruti,BR,-2.15222,-56.09222
Jupi,Jupi,BR,-8.71167,-36.415
Junqueiro,Junqueiro,BR,-9.92528,-36.47583
Jucurutu,Jucurutu,BR,-6.03389,-37.02028
Jucas,Jucas,BR,-6.52528,-39.5275
Juazeiro do Norte,Juazeiro do Norte,BR,-7.21306,-39.31528
Juazeiro,Juazeiro,BR,-9.41167,-40.49861
Jose de Freitas,Jose de Freitas,BR,-4.75639,-42.57556
Joaquim Gomes,Joaquim Gomes,BR,-9.13333,-35.74833
Joao Pessoa,Joao Pessoa,BR,-7.115,-34.86306
Joao Lisboa,Joao Lisboa,BR,-5.44778,-47.40083
Joao Camara,Joao Camara,BR,-5.5375,-35.81972
Joao Alfredo,Joao Alfredo,BR,-7.85583,-35.58833
Girau do Ponciano,Girau do Ponciano,BR,-9.88417,-36.82889
Jatauba,Jatauba,BR,-7.99,-36.49639
Jardim,Jardim,BR,-7.5817,-39.28348
Jaicos,Jaicos,BR,-7.35917,-41.13778
Jaguaruana,Jaguaruana,BR,-4.83389,-37.78111
Jaguaribe,Jaguaribe,BR,-5.89056,-38.62194
Jaguaretama,Jaguaretama,BR,-5.61278,-38.76694
Jacunda,Jacunda,BR,-4.44696,-49.11556
Jacareacanga,Jacareacanga,BR,-6.22222,-57.75278
Jaboatao,Jaboatao,BR,-8.18028,-35.00139
Itupiranga,Itupiranga,BR,-5.13472,-49.32667
Itatira,Itatira,BR,-4.52889,-39.62222
Itarema,Itarema,BR,-2.92028,-39.915
Itaquitinga,Itaquitinga,BR,-7.66778,-35.10167
Itacoatiara,Itacoatiara,BR,-3.14306,-58.44417
Itapororoca,Itapororoca,BR,-6.82972,-35.24722
Itaporanga,Itaporanga,BR,-7.30444,-38.15028
Itapiuna,Itapiuna,BR,-4.56444,-38.92222
Itapissuma,Itapissuma,BR,-7.77639,-34.89222
Itapipoca,Itapipoca,BR,-3.49444,-39.57861
Itapecuru Mirim,Itapecuru Mirim,BR,-3.3925,-44.35861
Itapage,Itapage,BR,-3.68667,-39.58611
Ilha de Itamaraca,Ilha de Itamaraca,BR,-7.74778,-34.82556
Itaituba,Itaituba,BR,-4.27611,-55.98361
Itaitinga,Itaitinga,BR,-3.96944,-38.52806
Itaiba,Itaiba,BR,-8.9475,-37.42278
Itabaiana,Itabaiana,BR,-7.32861,-35.3325
Irituia,Irituia,BR,-1.77111,-47.43806
Iraucuba,Iraucuba,BR,-3.74611,-39.78333
Ipueiras,Ipueiras,BR,-7.03333,-40.45
Ipueiras,Ipueiras,BR,-4.54167,-40.71889
Ipubi,Ipubi,BR,-7.65194,-40.14889
Ipu,Ipu,BR,-4.32222,-40.71083
Ipojuca,Ipojuca,BR,-8.39889,-35.06389
Inhapi,Inhapi,BR,-9.22139,-37.74861
Inga,Inga,BR,-7.28083,-35.60444
Independencia,Independencia,BR,-5.39639,-40.30861
Inaja,Inaja,BR,-8.90167,-37.82389
Imperatriz,Imperatriz,BR,-5.52639,-47.49167
Iguatu,Iguatu,BR,-6.35944,-39.29861
Igarape Miri,Igarape Miri,BR,-1.975,-48.95972
Igarape-Acu,Igarape-Acu,BR,-1.12889,-47.62
Igarassu,Igarassu,BR,-7.83417,-34.90639
Igaci,Igaci,BR,-9.53694,-36.63361
Ico,Ico,BR,-6.40111,-38.86222
Icatu,Icatu,BR,-2.77583,-44.06583
Icapui,Icapui,BR,-4.71306,-37.35528
Ibimirim,Ibimirim,BR,-8.54056,-37.69028
Ibiapina,Ibiapina,BR,-3.92333,-40.88944
Iati,Iati,BR,-9.04583,-36.84611
Humberto de Campos,Humberto de Campos,BR,-2.59833,-43.46111
Horizonte,Horizonte,BR,-4.09802,-38.486
Hidrolandia,Hidrolandia,BR,-4.408,-40.40414
Gurupa,Gurupa,BR,-1.405,-51.64
Guaraciaba do Norte,Guaraciaba do Norte,BR,-4.16694,-40.7475
Guarabira,Guarabira,BR,-6.85472,-35.49
Guarai,Guarai,BR,-8.83417,-48.51028
Guamare,Guamare,BR,-5.1075,-36.32028
Guaiuba,Guaiuba,BR,-4.03972,-38.63722
Gravata,Gravata,BR,-8.20111,-35.56472
Granja,Granja,BR,-3.12028,-40.82611
Grajau,Grajau,BR,-5.81944,-46.13861
Goianinha,Goianinha,BR,-6.26617,-35.20969
Goiana,Goiana,BR,-7.56056,-35.0025
Gloria do Goita,Gloria do Goita,BR,-8.00167,-35.29278
Gloria,Gloria,BR,-9.33806,-38.25472
Garanhuns,Garanhuns,BR,-8.88202,-36.50216
Gameleira,Gameleira,BR,-8.58444,-35.38667
Frecheirinha,Frecheirinha,BR,-3.76,-40.81639
Fortuna,Fortuna,BR,-5.73333,-44.15833
Fortim,Fortim,BR,-4.45194,-37.79722
Fortaleza,Fortaleza,BR,-3.71722,-38.54306
Forquilha,Forquilha,BR,-3.79833,-40.26056
Formosa da Serra Negra,Formosa da Serra Negra,BR,-6.44458,-46.18883
Floriano,Floriano,BR,-6.76694,-43.0225
Floresta,Floresta,BR,-8.60111,-38.56861
Flores,Flores,BR,-7.86806,-37.97472
Ferreiros,Ferreiros,BR,-7.4475,-35.24417
Feira Nova,Feira Nova,BR,-7.95083,-35.38917
Feira Grande,Feira Grande,BR,-9.90028,-36.6775
Farias Brito,Farias Brito,BR,-6.92806,-39.57232
Exu,Exu,BR,-7.51194,-39.72417
Eusebio,Eusebio,BR,-3.89,-38.45056
Extremoz,Extremoz,BR,-5.70556,-35.30722
Estreito,Estreito,BR,-5.78333,-43.25
Esperantinopolis,Esperantinopolis,BR,-4.87697,-44.88208
Esperantina,Esperantina,BR,-3.90167,-42.23361
Esperanca,Esperanca,BR,-7.03306,-35.85722
Escada,Escada,BR,-8.35917,-35.22361
Dom Pedro,Dom Pedro,BR,-5.03825,-44.43746
Demerval Lobao,Demerval Lobao,BR,-5.35833,-42.67639
Delmiro Gouveia,Delmiro Gouveia,BR,-9.38861,-37.99917
Custodia,Custodia,BR,-8.0875,-37.64306
Cururupu,Cururupu,BR,-1.82833,-44.86833
Curuca,Curuca,BR,-0.72889,-47.84806
Curralinho,Curralinho,BR,-1.81361,-49.79528
Currais Novos,Currais Novos,BR,-6.26083,-36.51778
Curaca,Curaca,BR,-8.99028,-39.90944
Cupira,Cupira,BR,-8.61667,-35.95
Cumaru,Cumaru,BR,-8.00611,-35.69722
Cuite,Cuite,BR,-6.48361,-36.15361
Cruz do Espirito Santo,Cruz do Espirito Santo,BR,-7.14,-35.08639
Croata,Croata,BR,-4.41594,-40.90471
Crato,Crato,BR,-7.23417,-39.40944
Crateus,Crateus,BR,-5.17775,-40.66949
Craibas,Craibas,BR,-9.61806,-36.76806
Quiterianopolis,Quiterianopolis,BR,-5.84426,-40.70195
Correntes,Correntes,BR,-9.12889,-36.33028
Coroata,Coroata,BR,-4.13,-44.12417
Coreau,Coreau,BR,-3.55097,-40.65724
Condado,Condado,BR,-7.58583,-35.10583
Conceicao do Araguaia,Conceicao do Araguaia,BR,-8.26441,-49.26982
Conceicao,Conceicao,BR,-7.56222,-38.50889
Colonia Leopoldina,Colonia Leopoldina,BR,-8.90889,-35.725
Colinas,Colinas,BR,-6.02583,-44.24917
Coelho Neto,Coelho Neto,BR,-4.25667,-43.01278
Codo,Codo,BR,-4.45528,-43.88556
Cocal,Cocal,BR,-3.47194,-41.5575
Chorozinho,Chorozinho,BR,-4.30028,-38.49778
Chaves,Chaves,BR,-0.16,-49.98833
Chapadinha,Chapadinha,BR,-3.74167,-43.36028
Cha Grande,Cha Grande,BR,-8.23833,-35.46167
Cedro,Cedro,BR,-6.60667,-39.06222
Ceara-Mirim,Ceara-Mirim,BR,-5.63444,-35.42556
Caxias,Caxias,BR,-4.85889,-43.35611
Caucaia,Caucaia,BR,-3.73611,-38.65306
Catole do Rocha,Catole do Rocha,BR,-6.34389,-37.74667
Campo Alegre de Lourdes,Campo Alegre de Lourdes,BR,-9.51729,-43.01026
Catende,Catende,BR,-8.66667,-35.71667
Castelo do Piaui,Castelo do Piaui,BR,-5.32222,-41.5525
Castanhal,Castanhal,BR,-1.29389,-47.92639
Cascavel,Cascavel,BR,-4.13306,-38.24194
Casa Nova,Casa Nova,BR,-9.17419,-40.97514
Carutapera,Carutapera,BR,-1.20736,-46.0236
Caruaru,Caruaru,BR,-8.28333,-35.97611
Carpina,Carpina,BR,-7.85083,-35.25472
Carolina,Carolina,BR,-7.33561,-47.46218
Carnaubal,Carnaubal,BR,-4.16667,-40.94278
Carnaiba,Carnaiba,BR,-7.80528,-37.79389
Carius,Carius,BR,-6.53722,-39.49667
Caririacu,Caririacu,BR,-7.04222,-39.28361
Carire,Carire,BR,-3.95056,-40.47333
Caridade,Caridade,BR,-4.23222,-39.1925
Careiro da Varzea,Careiro da Varzea,BR,-3.19695,-59.82674
Caraubas,Caraubas,BR,-5.7925,-37.55667
Capoeiras,Capoeiras,BR,-8.73472,-36.62667
Capitao Poco,Capitao Poco,BR,-1.74639,-47.05944
Capistrano,Capistrano,BR,-4.47,-38.90139
Capela,Capela,BR,-9.4075,-36.07361
Capanema,Capanema,BR,-1.19583,-47.18083
Canudos,Canudos,BR,-9.89667,-39.02639
Canto do Buriti,Canto do Buriti,BR,-8.11,-42.94444
Cantanhede,Cantanhede,BR,-3.63333,-44.37667
Caninde de Sao Francisco,Caninde de Sao Francisco,BR,-9.66,-37.78944
Caninde,Caninde,BR,-4.35889,-39.31167
Canhotinho,Canhotinho,BR,-8.88222,-36.19111
Canguaretama,Canguaretama,BR,-6.38,-35.12889
Candido Mendes,Candido Mendes,BR,-1.4532,-45.72831
Canapi,Canapi,BR,-9.11694,-37.60222
Campos Sales,Campos Sales,BR,-7.07444,-40.37611
Campo Maior,Campo Maior,BR,-4.82778,-42.16861
Campo Alegre,Campo Alegre,BR,-9.78194,-36.35083
Campina Grande,Campina Grande,BR,-7.23056,-35.88111
Camocim de Sao Felix,Camocim de Sao Felix,BR,-8.35861,-35.76194
Camocim,Camocim,BR,-2.90222,-40.84111
Cameta,Cameta,BR,-2.24444,-49.49583
Camaragibe,Camaragibe,BR,-8.02167,-34.98111
Cajueiro,Cajueiro,BR,-9.70926,-36.44785
Cajueiro,Cajueiro,BR,-9.39667,-36.15361
Cajazeiras,Cajazeiras,BR,-6.89028,-38.55528
Cajari,Cajari,BR,-3.32083,-45.01083
Caico,Caico,BR,-6.45833,-37.09778
Caetes,Caetes,BR,-8.77306,-36.6225
Cacimba de Dentro,Cacimba de Dentro,BR,-6.64167,-35.79
Cachoeirinha,Cachoeirinha,BR,-8.48639,-36.23306
Cachoeira do Arari,Cachoeira do Arari,BR,-1.01139,-48.96333
Cabrobo,Cabrobo,BR,-8.51417,-39.31
Cabo de Santo Agostinho,Cabo de Santo Agostinho,BR,-8.28773,-35.02925
Cabedelo,Cabedelo,BR,-6.98111,-34.83389
Caapora,Caapora,BR,-7.51556,-34.90833
Buriti dos Lopes,Buriti dos Lopes,BR,-3.175,-41.86694
Buriti Bravo,Buriti Bravo,BR,-5.83722,-43.83361
Buriti,Buriti,BR,-3.94222,-42.925
Bujaru,Bujaru,BR,-1.515,-48.04472
Buique,Buique,BR,-8.62306,-37.15583
Breves,Breves,BR,-1.68222,-50.48028
Brejo Santo,Brejo Santo,BR,-7.49333,-38.98722
Brejo da Madre de Deus,Brejo da Madre de Deus,BR,-8.14583,-36.37111
Brejo,Brejo,BR,-3.68444,-42.75028
Braganca,Braganca,BR,-1.05361,-46.76556
Borba,Borba,BR,-4.39143,-59.58864
Boqueirao,Boqueirao,BR,-7.48179,-36.13222
Bonito,Bonito,BR,-8.47028,-35.72861
Bom Jesus,Bom Jesus,BR,-9.07444,-44.35861
Bom Jardim,Bom Jardim,BR,-7.79583,-35.58722
Bom Conselho,Bom Conselho,BR,-9.16972,-36.67972
Bodoco,Bodoco,BR,-7.77833,-39.94111
Boca da Mata,Boca da Mata,BR,-9.64139,-36.22028
Boa Viagem,Boa Viagem,BR,-5.1275,-39.73222
Bezerros,Bezerros,BR,-8.23333,-35.79694
Bequimao,Bequimao,BR,-2.44889,-44.7825
Benevides,Benevides,BR,-1.36139,-48.24472
Belterra,Belterra,BR,-2.63639,-54.93722
Belo Jardim,Belo Jardim,BR,-8.33556,-36.42417
Belem de Sao Francisco,Belem de Sao Francisco,BR,-8.75389,-38.96583
Belem,Belem,BR,-6.69167,-35.53333
Belem,Belem,BR,-1.45583,-48.50444
Bela Cruz,Bela Cruz,BR,-3.05056,-40.16778
Beberibe,Beberibe,BR,-4.17972,-38.13056
Bayeux,Bayeux,BR,-7.125,-34.93222
Baturite,Baturite,BR,-4.32861,-38.88472
Batalha,Batalha,BR,-9.67778,-37.12472
Batalha,Batalha,BR,-4.025,-42.075
Barro,Barro,BR,-7.17846,-38.78003
Barreiros,Barreiros,BR,-8.81833,-35.18639
Barreirinhas,Barreirinhas,BR,-2.75556,-42.82591
Barreirinha,Barreirinha,BR,-2.79333,-57.07
Barreira,Barreira,BR,-4.28694,-38.64306
Barras,Barras,BR,-4.24444,-42.29444
Barra do Corda,Barra do Corda,BR,-5.50556,-45.24333
Barra de Santo Antonio,Barra de Santo Antonio,BR,-9.40472,-35.50722
Barcarena,Barcarena,BR,-1.50583,-48.62583
Barbalha,Barbalha,BR,-7.31111,-39.30417
Barauna,Barauna,BR,-5.08,-37.61667
Barao de Grajau,Barao de Grajau,BR,-6.75639,-43.02417
Bananeiras,Bananeiras,BR,-6.75,-35.63333
Balsas,Balsas,BR,-7.5325,-46.03556
Baiao,Baiao,BR,-2.79056,-49.67167
Bagre,Bagre,BR,-1.89969,-50.20821
Bacuri,Bacuri,BR,-1.72751,-45.14216
Bacabal,Bacabal,BR,-4.23246,-44.78164
Aveiro,Aveiro,BR,-3.60556,-55.33167
Autazes,Autazes,BR,-3.57972,-59.13056
Aurora,Aurora,BR,-6.9425,-38.9675
Augusto Correa,Augusto Correa,BR,-1.02167,-46.635
Atalaia,Atalaia,BR,-9.50194,-36.02278
Assare,Assare,BR,-6.87444,-39.875
Aroeiras,Aroeiras,BR,-7.54528,-35.7075
Areia Branca,Areia Branca,BR,-4.95611,-37.13694
Areia,Areia,BR,-6.96333,-35.69167
Arcoverde,Arcoverde,BR,-8.41889,-37.05389
Araruna,Araruna,BR,-6.55833,-35.74167
Araripina,Araripina,BR,-7.57611,-40.49833
Araripe,Araripe,BR,-7.21337,-40.137
Arari,Arari,BR,-3.45361,-44.78
Arapiraca,Arapiraca,BR,-9.7525,-36.66111
Araioses,Araioses,BR,-2.89,-41.90306
Araguatins,Araguatins,BR,-5.65084,-48.11119
Araguaina,Araguaina,BR,-7.19111,-48.20722
Aracoiaba,Aracoiaba,BR,-7.79028,-35.09083
Aracoiaba,Aracoiaba,BR,-4.37111,-38.81417
Aracati,Aracati,BR,-4.56167,-37.76972
Aracagi,Aracagi,BR,-6.85306,-35.38111
Aquiraz,Aquiraz,BR,-3.90139,-38.39111
Apodi,Apodi,BR,-5.66417,-37.79889
Sao Joao do Rio do Peixe,Sao Joao do Rio do Peixe,BR,-6.72917,-38.44889
Ananindeua,Ananindeua,BR,-1.36556,-48.37222
Anajatuba,Anajatuba,BR,-3.26444,-44.61972
Anajas,Anajas,BR,-0.98667,-49.94
Amontada,Amontada,BR,-3.36167,-39.83167
Amarante do Maranhao,Amarante do Maranhao,BR,-5.56667,-46.74222
Amarante,Amarante,BR,-6.24316,-42.84544
Amaraji,Amaraji,BR,-8.38306,-35.4525
Altos,Altos,BR,-5.03806,-42.46
Altinho,Altinho,BR,-8.48972,-36.05944
Altamira,Altamira,BR,-3.20333,-52.20639
Almeirim,Almeirim,BR,-1.52333,-52.58167
Alianca,Alianca,BR,-7.60333,-35.23083
Alhandra,Alhandra,BR,-7.43861,-34.91444
Alenquer,Alenquer,BR,-1.94167,-54.73833
Alcantara,Alcantara,BR,-2.4041,-44.41669
Alagoa Nova,Alagoa Nova,BR,-7.07083,-35.75833
Alagoa Grande,Alagoa Grande,BR,-7.04159,-35.62699
Aguas Belas,Aguas Belas,BR,-9.11139,-37.12306
Agua Preta,Agua Preta,BR,-8.7075,-35.53056
Agua Branca,Agua Branca,BR,-9.26083,-37.93611
Agua Branca,Agua Branca,BR,-5.89222,-42.63611
Agrestina,Agrestina,BR,-8.45806,-35.94472
Afua,Afua,BR,-0.15667,-50.38667
Afranio,Afranio,BR,-8.515,-41.005
Afogados da Ingazeira,Afogados da Ingazeira,BR,-7.75083,-37.63917
Acu,Acu,BR,-5.57667,-36.90861
Acopiara,Acopiara,BR,-6.09528,-39.4525
Acarau,Acarau,BR,-2.88556,-40.12
Acara,Acara,BR,-1.96083,-48.19667
Abreu e Lima,Abreu e Lima,BR,-7.91167,-34.90278
Abare,Abare,BR,-8.72028,-39.11389
Abaetetuba,Abaetetuba,BR,-1.71806,-48.8825
Mata Roma,Mata Roma,BR,-3.625,-43.11111
Colinas do Tocantins,Colinas do Tocantins,BR,-8.05917,-48.475
Xique-Xique,Xique-Xique,BR,-10.82294,-42.72815
Xaxim,Xaxim,BR,-26.96167,-52.53472
Xanxere,Xanxere,BR,-26.87694,-52.40417
Votuporanga,Votuporanga,BR,-20.42278,-49.97278
Votorantim,Votorantim,BR,-23.54667,-47.43778
Volta Redonda,Volta Redonda,BR,-22.52306,-44.10417
Vitoria da Conquista,Vitoria da Conquista,BR,-14.86611,-40.83944
Vitoria,Vitoria,BR,-20.31944,-40.33778
Visconde do Rio Branco,Visconde do Rio Branco,BR,-21.01028,-42.84056
Viradouro,Viradouro,BR,-20.87306,-48.29694
Vinhedo,Vinhedo,BR,-23.02972,-46.97528
Vila Velha,Vila Velha,BR,-20.32972,-40.2925
Vila Mariana,Vila Mariana,BR,-23.58833,-46.63464
Vila Maria,Vila Maria,BR,-23.51408,-46.58625
Videira,Videira,BR,-27.00833,-51.15167
Vicosa,Vicosa,BR,-20.75389,-42.88194
Viana,Viana,BR,-20.39028,-40.49611
Viamao,Viamao,BR,-30.08111,-51.02333
Vespasiano,Vespasiano,BR,-19.69194,-43.92333
Veranopolis,Veranopolis,BR,-28.93611,-51.54944
Vera Cruz,Vera Cruz,BR,-12.63333,-41.03333
Wenceslau Braz,Wenceslau Braz,BR,-23.87389,-49.80278
Venancio Aires,Venancio Aires,BR,-29.60639,-52.19194
Vazante,Vazante,BR,-17.98694,-46.90778
Vassouras,Vassouras,BR,-22.40389,-43.6625
Varzelandia,Varzelandia,BR,-15.70139,-44.0275
Varzea Paulista,Varzea Paulista,BR,-23.21139,-46.82833
Varzea Grande,Varzea Grande,BR,-15.64667,-56.1325
Varzea da Palma,Varzea da Palma,BR,-17.5976,-44.73367
Varginha,Varginha,BR,-21.55139,-45.43028
Vargem Grande do Sul,Vargem Grande do Sul,BR,-21.83222,-46.89361
Vargem Alta,Vargem Alta,BR,-20.67139,-41.00694
Valparaiso,Valparaiso,BR,-21.22778,-50.86833
Valinhos,Valinhos,BR,-22.97056,-46.99583
Valente,Valente,BR,-11.41222,-39.46194
Valenca,Valenca,BR,-22.24556,-43.70028
Valenca,Valenca,BR,-13.37028,-39.07306
Vacaria,Vacaria,BR,-28.51222,-50.93389
Utinga,Utinga,BR,-12.08167,-41.09444
Urussanga,Urussanga,BR,-28.51778,-49.32083
Uruguaiana,Uruguaiana,BR,-29.75472,-57.08833
Urucuia,Urucuia,BR,-16.1325,-45.74222
Urucuca,Urucuca,BR,-14.59306,-39.28444
Uruacu,Uruacu,BR,-14.52472,-49.14083
Urandi,Urandi,BR,-14.77139,-42.655
Uniao da Vitoria,Uniao da Vitoria,BR,-26.23,-51.08639
Unai,Unai,BR,-16.3575,-46.90611
Una,Una,BR,-15.29333,-39.07528
Umuarama,Umuarama,BR,-23.76639,-53.325
Umbauba,Umbauba,BR,-11.38333,-37.65778
Uberlandia,Uberlandia,BR,-18.91861,-48.27722
Uberaba,Uberaba,BR,-19.74833,-47.93194
Ubatuba,Ubatuba,BR,-23.43389,-45.07111
Ubata,Ubata,BR,-14.20906,-39.52641
Ubaitaba,Ubaitaba,BR,-14.3125,-39.32333
Ubaira,Ubaira,BR,-13.26806,-39.66278
Uba,Uba,BR,-21.12,-42.94278
Turmalina,Turmalina,BR,-17.28556,-42.73
Tupi Paulista,Tupi Paulista,BR,-21.38111,-51.57056
Boa Vista do Tupim,Boa Vista do Tupim,BR,-12.6623,-40.60652
Tupancireta,Tupancireta,BR,-29.08056,-53.83583
Tupaciguara,Tupaciguara,BR,-18.59222,-48.705
Tupa,Tupa,BR,-21.93472,-50.51361
Tucuruvi,Tucuruvi,BR,-23.47544,-46.60609
Tucano,Tucano,BR,-10.95817,-38.79084
Tubarao,Tubarao,BR,-28.46667,-49.00694
Triunfo,Triunfo,BR,-29.94333,-51.71806
Trindade,Trindade,BR,-16.64944,-49.48889
Tres Rios,Tres Rios,BR,-22.11667,-43.20917
Tres Pontas,Tres Pontas,BR,-21.36667,-45.5125
Tres Passos,Tres Passos,BR,-27.45556,-53.93194
Tres Lagoas,Tres Lagoas,BR,-20.78765,-51.70338
Tres de Maio,Tres de Maio,BR,-27.77333,-54.24
Tres Coroas,Tres Coroas,BR,-29.51694,-50.77778
Tres Coracoes,Tres Coracoes,BR,-21.69694,-45.25333
Tres Barras,Tres Barras,BR,-26.10639,-50.32222
Tremembe,Tremembe,BR,-22.95833,-45.54944
Tremedal,Tremedal,BR,-14.97583,-41.41083
Amelia Rodrigues,Amelia Rodrigues,BR,-12.39904,-38.75519
Tramandai,Tramandai,BR,-29.98472,-50.13361
Torres,Torres,BR,-29.33528,-49.72694
Toledo,Toledo,BR,-24.71361,-53.74306
Tocantins,Tocantins,BR,-21.175,-43.01778
Tobias Barreto,Tobias Barreto,BR,-11.18389,-37.99833
Timoteo,Timoteo,BR,-19.58106,-42.64953
Timbo,Timbo,BR,-26.82333,-49.27167
Tijucas do Sul,Tijucas do Sul,BR,-25.92842,-49.18008
Tijucas,Tijucas,BR,-27.24139,-48.63361
Tiete,Tiete,BR,-23.10194,-47.71472
Tibagi,Tibagi,BR,-24.50944,-50.41361
Teutonia,Teutonia,BR,-29.44806,-51.80639
Terra Preta,Terra Preta,BR,-22.63333,-47.05
Terra Boa,Terra Boa,BR,-23.76806,-52.44417
Teresopolis,Teresopolis,BR,-22.4167,-42.97822
Vera Cruz,Vera Cruz,BR,-29.71671,-52.50321
Terenos,Terenos,BR,-20.44222,-54.86028
Teofilo Otoni,Teofilo Otoni,BR,-17.8575,-41.50528
Teodoro Sampaio,Teodoro Sampaio,BR,-22.5325,-52.1675
Telemaco Borba,Telemaco Borba,BR,-24.32389,-50.61556
Taubate,Taubate,BR,-23.02639,-45.55528
