name_en,name_ko,country_code,lat,lon
Seoul,Seoul,KR,37.5665,126.9780
Busan,Busan,KR,35.1796,129.0756
Incheon,Incheon,KR,37.4563,126.7052
Daegu,Daegu,KR,35.8722,128.6014
Daejeon,Daejeon,KR,36.3504,127.3845
Gwangju,Gwangju,KR,35.1595,126.8526
Tokyo,Tokyo,JP,35.6895,139.6917
Osaka,Osaka,JP,34.6937,135.5023
New York,New York,US,40.7128,-74.0060
San Francisco,San Francisco,US,37.7749,-122.4194
Paris,Paris,FR,48.8566,2.3522
London,London,GB,51.5074,-0.1278
